stop_id,stop_name,lat,lng,direction_id,geo_wkt,city,create_time,creator,line_type,version,geom
006b661dd4cd67d4a3ad868246f61d66,绵商银行站,30.410898,104.53837,2,POINT(104.538370 30.410898),510112,20210521,ZhaoYubo,1,2021M5_cd,010100000071C971A774225A40E7FD7F9C30693E40
0499821063dc920e62449103528e64c1,三原外国语学校站,30.789908,104.153051,2,POINT(104.153051 30.789908),510112,20210521,ZhaoYubo,1,2021M5_cd,0101000000B0E76B96CB095A4049D9226937CA3E40
057d2b10987d64af8ebf3bec9260d1b6,大源,30.55233,104.043775,1,POINT(104.043775 30.552330),510112,20210521,ZhaoYubo,1,2021M5_cd,01010000007958A835CD025A408599B67F658D3E40
091d85262bfcb3443ec730fb5f4940c2,牧华路,30.487746,104.008817,1,POINT(104.008817 30.487746),510112,20210521,ZhaoYubo,1,2021M5_cd,010100000086A92D7590005A403CC1FEEBDC7C3E40
0a9edd685a49ab095e359bc4db91cee9,南熏大道,30.692276,103.849654,1,POINT(103.849654 30.692276),510112,20210521,ZhaoYubo,1,2021M5_cd,010100000099BA2BBB60F6594042CEFBFF38B13E40
0b521a06d15cde5b1a2e807984648005,香城小学站,30.805446,104.180097,1,POINT(104.180097 30.805446),510112,20210521,ZhaoYubo,1,2021M5_cd,0101000000E54691B5860B5A40ABB184B531CE3E40
1086f43c51f80f7303b578ed61067dc9,广州路,30.421508,104.074757,1,POINT(104.074757 30.421508),510112,20210521,ZhaoYubo,1,2021M5_cd,01010000006A8995D1C8045A409B00C3F2E76B3E40
14a8da381e5327bdb8da6c2743b5f263,松林,30.428362,104.044133,1,POINT(104.044133 30.428362),510112,20210521,ZhaoYubo,1,2021M5_cd,010100000029EB3713D3025A4062D9CC21A96D3E40
17538f09ccb582dedc3563c67ac7fc05,新桥,30.719721,104.041983,1,POINT(104.041983 30.719721),510112,20210521,ZhaoYubo,1,2021M5_cd,01010000003BFF76D9AF025A40923EADA23FB83E40
179c4f1268bfd24863aff36e9a51dfd3,温泉大道,30.675311,103.853057,1,POINT(103.853057 30.675311),510112,20210521,ZhaoYubo,1,2021M5_cd,0101000000EE27637C98F659400AA1832EE1AC3E40
1a57149358c03f7aba51b3eeb6f87cac,桂林,30.719077,104.176488,1,POINT(104.176488 30.719077),510112,20210521,ZhaoYubo,1,2021M5_cd,0101000000BC0853944B0B5A40484E266E15B83E40
1d463cfbc2bd3a5678690d2fb0c170bf,庆云村,30.590539,104.034902,1,POINT(104.034902 30.590539),510112,20210521,ZhaoYubo,1,2021M5_cd,0101000000292499D53B025A4036035C902D973E40
1eb6656f0cd49ac885bfb98e32e9cc5b,茶店子客运站,30.708513,104.011342,2,POINT(104.011342 30.708513),510112,20210521,ZhaoYubo,1,2021M5_cd,01010000008FC4CBD3B9005A4075CAA31B61B53E40
20478ac53655c365240ec5ee5f754732,东门大桥,30.650597,104.084774,4,POINT(104.084774 30.650597),510112,20210521,ZhaoYubo,1,2021M5_cd,01010000004563EDEF6C055A402FE065868DA63E40
20b574ccc0947a3c15bf3e3aeb2aec11,天府公园,30.435459,104.075235,1,POINT(104.075235 30.435459),510112,20210521,ZhaoYubo,1,2021M5_cd,0101000000EF2076A6D0045A40B6BFB33D7A6F3E40
21f34d9243b502cb2bf3e1129292701f,崔家店,30.667839,104.133906,1,POINT(104.133906 30.667839),510112,20210521,ZhaoYubo,1,2021M5_cd,01010000003EAF78EA91085A404CFE277FF7AA3E40
24d1755d2ee1dd1670cfc3646b98c81c,光华村,30.664819,104.019299,1,POINT(104.019299 30.664819),510112,20210521,ZhaoYubo,1,2021M5_cd,01010000001D76DF313C015A406AC2F69331AA3E40
27b93ba88a19be46867aa7673f7b1792,星河,30.704758,104.041661,1,POINT(104.041661 30.704758),510112,20210521,ZhaoYubo,1,2021M5_cd,01010000003221E692AA025A40299831056BB43E40
2c1e9234855e0b406ef1a4ebff039735,化龙社区站,30.55099,104.0844,2,POINT(104.084400 30.550990),510112,20210521,ZhaoYubo,1,2021M5_cd,010100000013F241CF66055A404C6C3EAE0D8D3E40
2ed9cbc72bc17708320d9b61c38602af,SM广场站,30.669932,104.111427,3,POINT(104.111427 30.669932),510112,20210521,ZhaoYubo,1,2021M5_cd,01010000000D39B69E21075A403B8BDEA980AB3E40
31199872249e1bef6453eb8fd1fbe92d,秦皇寺,30.426996,104.05936,1,POINT(104.059360 30.426996),510112,20210521,ZhaoYubo,1,2021M5_cd,010100000032ACE28DCC035A40D7851F9C4F6D3E40
3227624e9cfde517f9e42a20f39346b4,天府一街剑南大道口站,30.56275,104.046959,2,POINT(104.046959 30.562750),510112,20210521,ZhaoYubo,1,2021M5_cd,01010000002F50526001035A40F2D24D6210903E40
33d01ca11da6a4a481edf4c2568d15a3,北湖生态公园,30.722447,104.153648,3,POINT(104.153648 30.722447),510112,20210521,ZhaoYubo,1,2021M5_cd,010100000022C66B5ED5095A40E3175E49F2B83E40
3bff2a6f00ff58bbe6d9e63afe3b1470,九眼桥,30.641825,104.085633,1,POINT(104.085633 30.641825),510112,20210521,ZhaoYubo,1,2021M5_cd,0101000000569DD5027B055A4055C1A8A44EA43E40
3c96a66f47e624abc243aee601b1af67,川大江安校区,30.557847,104.004775,1,POINT(104.004775 30.557847),510112,20210521,ZhaoYubo,1,2021M5_cd,0101000000A835CD3B4E005A40F52B9D0FCF8E3E40
3d32fbaac12254cc055c84de2f028e99,冯家湾路,30.76519,104.097961,2,POINT(104.097961 30.765190),510112,20210521,ZhaoYubo,1,2021M5_cd,010100000024D236FE44065A40EB39E97DE3C33E40
3e12ce90a5b8c7eaae766d3209b036fe,西博城,30.427252,104.073319,1,POINT(104.073319 30.427252),510112,20210521,ZhaoYubo,1,2021M5_cd,01010000003ACB2C42B1045A408D261763606D3E40
404898bb1583cd4d5d5d4169b0cea956,清水河大桥,30.654222,104.019637,1,POINT(104.019637 30.654222),510112,20210521,ZhaoYubo,1,2021M5_cd,0101000000A9328CBB41015A40DF52CE177BA73E40
417f5022b5bf7ba621a7bd85dcfb949c,倪家桥,30.627209,104.064382,1,POINT(104.064382 30.627209),510112,20210521,ZhaoYubo,1,2021M5_cd,0101000000DE1CAED51E045A40C2C1DEC490A03E40
42ebcf87f8b26d6bd578a977e997b014,川藏立交,30.62552,104.004145,1,POINT(104.004145 30.625520),510112,20210521,ZhaoYubo,1,2021M5_cd,010100000048DC63E943005A4072FE261422A03E40
448d569eef081c39f905b2b7516e3d98,人民塘,30.692039,104.151366,1,POINT(104.151366 30.692039),510112,20210521,ZhaoYubo,1,2021M5_cd,01010000007CEE04FBAF095A407A8EC87729B13E40
466f66fef7b88aa755b0a3b18496eb01,科园,30.630539,104.0354,1,POINT(104.035400 30.630539),510112,20210521,ZhaoYubo,1,2021M5_cd,0101000000D1915CFE43025A4040DAFF006BA13E40
485c614380565549d1876cc919e8d32e,新都华桂路站,30.827255,104.095367,1,POINT(104.095367 30.827255),510112,20210521,ZhaoYubo,1,2021M5_cd,01010000008787307E1A065A40D673D2FBC6D33E40
496424bb33eb31bc7ae1e94d8ab6c0cd,槐树店,30.652172,104.136873,1,POINT(104.136873 30.652172),510112,20210521,ZhaoYubo,1,2021M5_cd,010100000025ADF886C2085A40EE5D83BEF4A63E40
4b8a7fe6e8bf421f31b518a513a67905,王贾桥,30.720062,104.06592,2,POINT(104.065920 30.720062),510112,20210521,ZhaoYubo,1,2021M5_cd,0101000000C009850838045A40A417B5FB55B83E40
4cb65aa32cc33d1ca2d3fa8b0e0c0750,市五医院,30.701399,103.827254,2,POINT(103.827254 30.701399),510112,20210521,ZhaoYubo,1,2021M5_cd,01010000000DDFC2BAF1F45940757286E28EB33E40
5188e3c4a73aa6e66afd17efe618577a,丽水金都1站,30.803548,104.165225,3,POINT(104.165225 30.803548),510112,20210521,ZhaoYubo,1,2021M5_cd,0101000000D3DEE00B930A5A4026C45C52B5CD3E40
527e6bf28ff71839258e4a8644faed99,桐梓林,30.61775,104.064612,1,POINT(104.064612 30.617750),510112,20210521,ZhaoYubo,1,2021M5_cd,010100000077BB5E9A22045A40A01A2FDD249E3E40
58d27b32eaabb32ab23563a29fc3090a,地铁马超西路站,30.816404,104.163073,2,POINT(104.163073 30.816404),510112,20210521,ZhaoYubo,1,2021M5_cd,01010000001477BCC96F0A5A40D65240DAFFD03E40
5b249bbcfbb1b0d3fab74ecb63c34734,儒林路,30.419034,103.800887,1,POINT(103.800887 30.419034),510112,20210521,ZhaoYubo,1,2021M5_cd,0101000000A9328CBB41F359407DE9EDCF456B3E40
62b7b3aa363d3d6015366629f79c20e1,东坡路,30.663478,104.005687,1,POINT(104.005687 30.663478),510112,20210521,ZhaoYubo,1,2021M5_cd,0101000000CAC0012D5D005A40919DB7B1D9A93E40
63714774b57818ede9fdbc483c2bc62f,派都广场站,30.827812,104.195206,1,POINT(104.195206 30.827812),510112,20210521,ZhaoYubo,1,2021M5_cd,0101000000E97E4E417E0C5A40823CBB7CEBD33E40
641aa62e4ce504dfb4604cd3fbec5743,中柏东巷路口站,30.55427,104.09374,1,POINT(104.093740 30.554270),510112,20210521,ZhaoYubo,1,2021M5_cd,0101000000EE940ED6FF055A40672783A3E48D3E40
671892e2cd3423a94786d80848b3d0fc,地铁东大路站,30.636312,104.109502,2,POINT(104.109502 30.636312),510112,20210521,ZhaoYubo,1,2021M5_cd,01010000002F36AD1402075A40670DDE57E5A23E40
678ac7f66b7f1d50b0cecedba9f9cc91,赛云台,30.703004,104.063997,1,POINT(104.063997 30.703004),510112,20210521,ZhaoYubo,1,2021M5_cd,0101000000B282DF8618045A400AF5F411F8B33E40
67e0064fc71740a5271c2a62f691f889,东郊记忆北大门,30.672431,104.119695,1,POINT(104.119695 30.672431),510112,20210521,ZhaoYubo,1,2021M5_cd,0101000000A99F3715A9075A400BD1217024AC3E40
68cf72f0dce6585328fcfd948570be62,龙华寺,30.573759,104.176171,1,POINT(104.176171 30.573759),510112,20210521,ZhaoYubo,1,2021M5_cd,01010000003BE0BA62460B5A4021C9ACDEE1923E40
71e06bdd29002b8f7cbd886423e46816,东门市井,30.619034,104.122217,1,POINT(104.122217 30.619034),510112,20210521,ZhaoYubo,1,2021M5_cd,0101000000FA804067D2075A40B01C2103799E3E40
71eb3b4c5b223eb1bfd74527d717186b,兴隆湖,30.407687,104.073902,1,POINT(104.073902 30.407687),510112,20210521,ZhaoYubo,1,2021M5_cd,0101000000FA4674CFBA045A401D01DC2C5E683E40
72ab16494f978e1937ba31ab5a465f8e,成医附院站,30.830274,104.156011,3,POINT(104.156011 30.830274),510112,20210521,ZhaoYubo,1,2021M5_cd,01010000003EB48F15FC095A4017B83CD68CD43E40
72c8faf93d5d137a43d155349ccc044c,洪家桥,30.612421,104.192744,1,POINT(104.192744 30.612421),510112,20210521,ZhaoYubo,1,2021M5_cd,01010000000420EEEA550C5A403562669FC79C3E40
75caeff8207203d85e48dd73c898acc3,草堂北路,30.671597,104.025785,1,POINT(104.025785 30.671597),510112,20210521,ZhaoYubo,1,2021M5_cd,01010000008DEE2076A6015A407A17EFC7EDAB3E40
766cd2f3930d316696847158c37ebd1c,万安,30.497321,104.096917,1,POINT(104.096917 30.497321),510112,20210521,ZhaoYubo,1,2021M5_cd,01010000004B5B5CE333065A40309DD66D507F3E40
7766a87b072a7f21d5e10ff07ab296ea,环球中心站,30.572027,104.065194,1,POINT(104.065194 30.572027),510112,20210521,ZhaoYubo,1,2021M5_cd,01010000004F7974232C045A40D26D895C70923E40
7c464336ab907dfbf0b9d737d31b031a,侯家桥,30.739565,104.002352,1,POINT(104.002352 30.739565),510112,20210521,ZhaoYubo,1,2021M5_cd,010100000022C5008926005A402844C02154BD3E40
7d983bcec027cf12fc8d1f7133f43ed0,凤溪河,30.689551,103.840979,1,POINT(103.840979 30.689551),510112,20210521,ZhaoYubo,1,2021M5_cd,0101000000DC679599D2F5594092EC116A86B03E40
7f38411cf39ae303ee8a25993cb90022,锦城湖公园站,30.578631,104.038557,2,POINT(104.038557 30.578631),510112,20210521,ZhaoYubo,1,2021M5_cd,01010000000A82C7B777025A40A873452921943E40
80d31278a9f2a087937d391c7e30620e,茶店子,30.698712,104.028425,1,POINT(104.028425 30.698712),510112,20210521,ZhaoYubo,1,2021M5_cd,0101000000E25817B7D1015A40A05225CADEB23E40
81130b4dc254a6e3e752aac341649b1d,金华寺东路,30.772763,104.12291,1,POINT(104.122910 30.772763),510112,20210521,ZhaoYubo,1,2021M5_cd,01010000007D96E7C1DD075A40118FC4CBD3C53E40
81297c8499637221559cab49496e8b6e,广都,30.513217,104.0732,1,POINT(104.073200 30.513217),510112,20210521,ZhaoYubo,1,2021M5_cd,01010000004D840D4FAF045A4051C0763062833E40
813c53234948f4d4ccc9a07423b55bf2,金府,30.713998,104.034412,1,POINT(104.034412 30.713998),510112,20210521,ZhaoYubo,1,2021M5_cd,0101000000C2A563CE33025A40CF68AB92C8B63E40
84ac275699470a77b178c2455487222a,大丰,30.773985,104.062602,1,POINT(104.062602 30.773985),510112,20210521,ZhaoYubo,1,2021M5_cd,010100000082AAD1AB01045A40359886E123C63E40
859f9fd972e65098c0451399432bd220,五津,30.426387,103.811153,1,POINT(103.811153 30.426387),510112,20210521,ZhaoYubo,1,2021M5_cd,010100000059C345EEE9F359408670CCB2276D3E40
8cccb88111b1cf520a4ed765d1693717,冯家湾路站,30.76519,104.097961,4,POINT(104.097961 30.765190),510112,20210521,ZhaoYubo,1,2021M5_cd,010100000024D236FE44065A40EB39E97DE3C33E40
8dbeb201df8c0f3a3c7a4a66a9b97e09,新都四中1站,30.829663,104.153373,1,POINT(104.153373 30.829663),510112,20210521,ZhaoYubo,1,2021M5_cd,0101000000B9C5FCDCD0095A4085B35BCB64D43E40
8fd4d12a3ae8d8e8f5f6be356ec9af23,中和镇公交站,30.564873,104.095802,2,POINT(104.095802 30.564873),510112,20210521,ZhaoYubo,1,2021M5_cd,01010000000D39B69E21065A40B66455849B903E40
8fddadebaf3ccac1f3c56239ac69c614,升庵中学站,30.820734,104.153008,1,POINT(104.153008 30.820734),510112,20210521,ZhaoYubo,1,2021M5_cd,0101000000B00111E2CA095A401CB7989F1BD23E40
8ff627e29f8c4ff8e7ddf23a829e3ada,蜀龙路民兴路口,30.69312,104.134644,2,POINT(104.134644 30.693120),510112,20210521,ZhaoYubo,1,2021M5_cd,01010000009126DE019E085A401A34F44F70B13E40
90f75c61aa97784ce226d14dc789163b,青羊宫,30.661924,104.038423,1,POINT(104.038423 30.661924),510112,20210521,ZhaoYubo,1,2021M5_cd,0101000000821ABE8575025A400070ECD973A93E40
92803fce8c6cdaa67678840f676dfa0c,富城花园站,30.815796,104.160704,1,POINT(104.160704 30.815796),510112,20210521,ZhaoYubo,1,2021M5_cd,010100000087156EF9480A5A402635B401D8D03E40
9906d4d91c2e010d39fa2a2c46969d9d,天香苑站,30.817313,104.177711,3,POINT(104.177711 30.817313),510112,20210521,ZhaoYubo,1,2021M5_cd,0101000000ED48F59D5F0B5A407C98BD6C3BD13E40
994225825ba0e2913803777059d26643,杜家碾,30.773942,104.072733,1,POINT(104.072733 30.773942),510112,20210521,ZhaoYubo,1,2021M5_cd,0101000000C21550A8A7045A4037001B1021C63E40
99431e469a5558d7c55f964075e5e179,骡马市,30.669184,104.063114,1,POINT(104.063114 30.669184),510112,20210521,ZhaoYubo,1,2021M5_cd,0101000000DD7A4D0F0A045A40A80183A44FAB3E40
9e0876ad0a845f4c5cceb36fbbe9ad3f,文星,30.553252,103.988305,1,POINT(103.988305 30.553252),510112,20210521,ZhaoYubo,1,2021M5_cd,01010000004A5E9D6340FF594054724EECA18D3E40
a0c3cdae205dae2c7d10c36a9c0b01e1,府城桥,30.591197,104.074471,1,POINT(104.074471 30.591197),510112,20210521,ZhaoYubo,1,2021M5_cd,010100000007600322C4045A404A7EC4AF58973E40
a1e3167623ea56be85530a682b3140f7,小南街,30.65535,104.04993,2,POINT(104.049930 30.655350),510112,20210521,ZhaoYubo,1,2021M5_cd,0101000000B745990D32035A40006F8104C5A73E40
a42c79dc3e27bc48dea175aca3de56aa,红星桥,30.674566,104.08877,1,POINT(104.088770 30.674566),510112,20210521,ZhaoYubo,1,2021M5_cd,01010000006BB75D68AE055A4058FE7C5BB0AC3E40
a47367d3adf954ec609fa502868d37dc,福宁路,30.716945,104.057334,1,POINT(104.057334 30.716945),510112,20210521,ZhaoYubo,1,2021M5_cd,0101000000BABC395CAB035A40DD0720B589B73E40
abb3694ab8c34a831cddf535041f53ec,衣冠庙,30.636945,104.049674,1,POINT(104.049674 30.636945),510112,20210521,ZhaoYubo,1,2021M5_cd,0101000000895DDBDB2D035A40C959D8D30EA33E40
b37904526f3f4380cbbbcee3ee92be81,交子大道,30.584338,104.047747,2,POINT(104.047747 30.584338),510112,20210521,ZhaoYubo,1,2021M5_cd,0101000000DBDE6E490E035A405FCFD72C97953E40
b50243d0f5747fbb9ca7b969be1bed68,龙安,30.566947,104.190768,1,POINT(104.190768 30.566947),510112,20210521,ZhaoYubo,1,2021M5_cd,0101000000E547FC8A350C5A40B890477023913E40
b582b62611239ecddf05bd5c61153c6e,来龙,30.649332,104.162,1,POINT(104.162000 30.649332),510112,20210521,ZhaoYubo,1,2021M5_cd,0101000000EE7C3F355E0A5A400C3F389F3AA63E40
b5eb41480dc4f17f67b8915f334abb1f,万家湾,30.665703,103.961027,3,POINT(103.961027 30.665703),510112,20210521,ZhaoYubo,1,2021M5_cd,0101000000ACE4637781FD59405ED905836BAA3E40
b8de94a86362b242b9b1525d9e7f773e,沙湾,30.691637,104.048615,1,POINT(104.048615 30.691637),510112,20210521,ZhaoYubo,1,2021M5_cd,010100000015C616821C035A401CB4571F0FB13E40
baac6e1600a9e2d566ed87fe4817c85a,莲花,30.548944,103.977156,1,POINT(103.977156 30.548944),510112,20210521,ZhaoYubo,1,2021M5_cd,0101000000C5C551B989FE5940DE550F98878C3E40
bba61e65cc83457171c207c222e1d42e,正兴湾,30.455132,104.039386,1,POINT(104.039386 30.455132),510112,20210521,ZhaoYubo,1,2021M5_cd,0101000000E57ADB4C85025A40F25CDF8783743E40
bbd3c55ea2690acd05ff4655e886ff97,新南门,30.646691,104.073039,1,POINT(104.073039 30.646691),510112,20210521,ZhaoYubo,1,2021M5_cd,01010000004815C5ABAC045A40179E978A8DA53E40
bc41fed4ab0bef85b01330443c32cdf2,学院路西段1站,30.81347,104.150742,1,POINT(104.150742 30.813470),510112,20210521,ZhaoYubo,1,2021M5_cd,01010000008D08C6C1A5095A40F146E6913FD03E40
c0300dbe58c48a0e30968ce345797d70,九眼桥北,30.644268,104.088524,1,POINT(104.088524 30.644268),510112,20210521,ZhaoYubo,1,2021M5_cd,0101000000503A9160AA055A40FDDB65BFEEA43E40
c3d272093ff43a70affc4d4ab4b02f28,华阳,30.505641,104.068016,1,POINT(104.068016 30.505641),510112,20210521,ZhaoYubo,1,2021M5_cd,0101000000B4E6C75F5A045A40498446B071813E40
c3e915be639e9c4820ffc1912754fa03,什邡安顺车站,31.137834,104.153917,1,POINT(104.153917 31.137834),510112,20210521,ZhaoYubo,1,2021M5_cd,01010000001A53B0C6D9095A40E146CA1649233F40
c7b1af58433be9e871bc6dd21fd282de,三圣寺,30.773758,104.098686,1,POINT(104.098686 30.773758),510112,20210521,ZhaoYubo,1,2021M5_cd,0101000000ADA415DF50065A40B404190115C63E40
c8efa6fe833e4891d2e6ad46b298c0c9,幸福桥,30.779294,104.085722,1,POINT(104.085722 30.779294),510112,20210521,ZhaoYubo,1,2021M5_cd,01010000000EA320787C055A4012F8C3CF7FC73E40
ca9ba393c879528509b5985cc2128bc4,杉板桥,30.666571,104.116754,1,POINT(104.116754 30.666571),510112,20210521,ZhaoYubo,1,2021M5_cd,010100000057EBC4E578075A404776A565A4AA3E40
cb042050036de8935081d7c69c57769e,桂湖河畔站,30.82543,104.150436,2,POINT(104.150436 30.825430),510112,20210521,ZhaoYubo,1,2021M5_cd,0101000000070951BEA0095A40252367614FD33E40
cb53f12d1ea038eeec1930cbe57c1c09,马厂坝,30.680183,103.911723,1,POINT(103.911723 30.680183),510112,20210521,ZhaoYubo,1,2021M5_cd,0101000000B4006DAB59FA5940904B1C7920AE3E40
cd8a3261182d000933487bc700dbad8a,柏水场,30.817827,104.091685,1,POINT(104.091685 30.817827),510112,20210521,ZhaoYubo,1,2021M5_cd,01010000002922C32ADE055A402AC93A1C5DD13E40
cefa75748d364a0bf43cf98f33f6f1a6,骑龙,30.528081,104.041903,1,POINT(104.041903 30.528081),510112,20210521,ZhaoYubo,1,2021M5_cd,0101000000ADA6EB89AE025A4094A3005130873E40
d093e8bfe5cd2acc06094c8a2b173781,小北街站,30.829914,104.158273,1,POINT(104.158273 30.829914),510112,20210521,ZhaoYubo,1,2021M5_cd,0101000000BFB51325210A5A40177E703E75D43E40
d1b2ac9fbdf532ef30ec13a4fe0f472c,沈阳路,30.469812,104.098971,1,POINT(104.098971 30.469812),510112,20210521,ZhaoYubo,1,2021M5_cd,01010000002810768A55065A40B344679945783E40
d1fe5dc4a7013809b04132925fa8f7f0,兴乐北路口站,30.809409,104.187462,1,POINT(104.187462 30.809409),510112,20210521,ZhaoYubo,1,2021M5_cd,010100000089CF9D60FF0B5A408B16A06D35CF3E40
d4307fcae755a2f70eb826e08fb6db0e,同乐,30.713613,104.166852,1,POINT(104.166852 30.713613),510112,20210521,ZhaoYubo,1,2021M5_cd,01010000006CD102B4AD0A5A401D007157AFB63E40
d48c808fb6d40db4fb097ec4875002f0,怡心湖,30.473529,104.02408,1,POINT(104.024080 30.473529),510112,20210521,ZhaoYubo,1,2021M5_cd,0101000000361FD7868A015A4024B5503239793E40
d611cc95086b38c8a554191401c91fc2,二仙桥,30.683287,104.124135,1,POINT(104.124135 30.683287),510112,20210521,ZhaoYubo,1,2021M5_cd,01010000007E52EDD3F1075A402EC896E5EBAE3E40
d69a0fbb073b7dc58f2c0358e2ae95d9,珠江路,30.568894,104.005774,1,POINT(104.005774 30.568894),510112,20210521,ZhaoYubo,1,2021M5_cd,0101000000B24AE9995E005A4000E48409A3913E40
dc7716fdcd48d85d9463fff9b436994e,四河,30.518604,104.067621,1,POINT(104.067621 30.518604),510112,20210521,ZhaoYubo,1,2021M5_cd,010100000076E107E753045A402593533BC3843E40
ddafcca85085a383c6a8ac8d1afa40d4,孵化园,30.578261,104.062867,1,POINT(104.062867 30.578261),510112,20210521,ZhaoYubo,1,2021M5_cd,0101000000D93F4F0306045A40618DB3E908943E40
e5c317e428f0cfd885b53d4d058b5d5b,星月,30.563981,103.974593,1,POINT(103.974593 30.563981),510112,20210521,ZhaoYubo,1,2021M5_cd,0101000000467A51BB5FFE5940BC900E0F61903E40
e70f30e3e2f7b672da58caa2aa5fc09f,万科双水岸站,30.793304,104.143425,1,POINT(104.143425 30.793304),510112,20210521,ZhaoYubo,1,2021M5_cd,0101000000711B0DE02D095A4036C98FF815CB3E40
e85b33ee997abc5b4f1ee68d018de0a5,顺风,30.579739,104.008629,1,POINT(104.008629 30.579739),510112,20210521,ZhaoYubo,1,2021M5_cd,01010000000533A6608D005A403B376DC669943E40
e860b313c76d631e5f34f2747586c23e,羊犀立交,30.696386,104.010037,1,POINT(104.010037 30.696386),510112,20210521,ZhaoYubo,1,2021M5_cd,0101000000FFAF3A72A4005A406B64575A46B23E40
ec817571369c19ee4a1ca99338468f76,八里庄,30.689518,104.115516,1,POINT(104.115516 30.689518),510112,20210521,ZhaoYubo,1,2021M5_cd,01010000008B8A389D64075A40DA006C4084B03E40
ed40377c56505a32693f7c2841e82846,安和路,30.564307,104.102797,1,POINT(104.102797 30.564307),510112,20210521,ZhaoYubo,1,2021M5_cd,01010000001F48DE3994065A4064E76D6C76903E40
f13ff75af2a6aa43416cb18f7d833096,庆安,30.60091,104.031572,1,POINT(104.031572 30.600910),510112,20210521,ZhaoYubo,1,2021M5_cd,010100000009DE904605025A40E0D6DD3CD5993E40
f1e9ca49e7dbdca364a0c079b13317c7,八二一小区站,30.817756,104.160222,2,POINT(104.160222 30.817756),510112,20210521,ZhaoYubo,1,2021M5_cd,01010000006286C613410A5A40971B0C7558D13E40
f5758e759003ef9dbb7d35e94bedb280,花照壁北,30.710327,104.027247,1,POINT(104.027247 30.710327),510112,20210521,ZhaoYubo,1,2021M5_cd,0101000000817A336ABE015A403E7782FDD7B53E40
f5822748c385bbd59e8718573931c4c8,兴城大道,30.811795,104.106709,1,POINT(104.106709 30.811795),510112,20210521,ZhaoYubo,1,2021M5_cd,0101000000164CFC51D4065A406B0E10CCD1CF3E40
f8120b031294d9d3a282db9f98037908,金融城,30.585036,104.061651,1,POINT(104.061651 30.585036),510112,20210521,ZhaoYubo,1,2021M5_cd,010100000001310917F2035A408FFB56EBC4953E40
fa013889a505eca3af2c8f10361fcb51,地铁动物园站(B口),30.717397,104.101291,1,POINT(104.101291 30.717397),510112,20210521,ZhaoYubo,1,2021M5_cd,010100000044183F8D7B065A409E3F6D54A7B73E40
0182659e1ca006bcf3f120b515024a2e,科学城,30.393741,104.069825,1,POINT(104.069825 30.393741),510112,20210521,ZhaoYubo,1,2021M5_cd,01010000005DDC460378045A402618CE35CC643E40
05312ee85a5e978bbcecc182a26f294d,植物园,30.765711,104.118759,1,POINT(104.118759 30.765711),510112,20210521,ZhaoYubo,1,2021M5_cd,0101000000C34659BF99075A40FD2FD7A205C43E40
06d885dc6961a40344d6ac04d02e60bd,石门坎,30.778498,104.098753,1,POINT(104.098753 30.778498),510112,20210521,ZhaoYubo,1,2021M5_cd,010100000071581AF851065A405C001AA54BC73E40
099c85648880459d23544a13e78cef75,北站西二路,30.696593,104.063715,1,POINT(104.063715 30.696593),510112,20210521,ZhaoYubo,1,2021M5_cd,0101000000F05014E813045A405E9F39EB53B23E40
0e024e9062f72447aaeefa5df51c493b,芦角,30.434134,104.035296,1,POINT(104.035296 30.434134),510112,20210521,ZhaoYubo,1,2021M5_cd,01010000007F6B274A42025A40E814E467236F3E40
109f2ad440871f7d4da67f741912fba0,狮子山,30.618368,104.121779,1,POINT(104.121779 30.618368),510112,20210521,ZhaoYubo,1,2021M5_cd,0101000000BC95253ACB075A4097E4805D4D9E3E40
110376f5b3841eb3c754a8275d0a1ef9,火车南站,30.607712,104.06489,1,POINT(104.064890 30.607712),510112,20210521,ZhaoYubo,1,2021M5_cd,010100000099F5622827045A4002637D03939B3E40
14af01ba270a5440217eb98bc3b2e3b1,武侯大道金江中路口站,30.615066,103.959291,2,POINT(103.959291 30.615066),510112,20210521,ZhaoYubo,1,2021M5_cd,01010000003716140665FD5940ACE122F7749D3E40
15828e103ceebb8989dc24dcdc2dbbbd,香洲半岛站,30.794541,104.159934,2,POINT(104.159934 30.794541),510112,20210521,ZhaoYubo,1,2021M5_cd,01010000002FE1D05B3C0A5A40C554FA0967CB3E40
15b89425b4872baeb0dfe6043a3d6ca7,天府商务区,30.432548,104.08382,1,POINT(104.083820 30.432548),510112,20210521,ZhaoYubo,1,2021M5_cd,01010000000CB08F4E5D055A4041F33977BB6E3E40
17b1226c8d2f213b29ba4cb4606521f9,锦城大道中站,30.577806,104.049961,2,POINT(104.049961 30.577806),510112,20210521,ZhaoYubo,1,2021M5_cd,0101000000D4449F8F32035A40BD6E1118EB933E40
1aabcff08390c79f86553675d9080d88,红莲,30.435504,104.061251,1,POINT(104.061251 30.435504),510112,20210521,ZhaoYubo,1,2021M5_cd,01010000003A765089EB035A40F646AD307D6F3E40
1c214fbe759ccff0cb4444fbec73c0f3,大面铺,30.594962,104.198892,1,POINT(104.198892 30.594962),510112,20210521,ZhaoYubo,1,2021M5_cd,0101000000E8DB82A5BA0C5A40DD5CFC6D4F983E40
1e01e6b1fb1ba56573a68396331112ae,新平,30.411013,103.779287,1,POINT(103.779287 30.411013),510112,20210521,ZhaoYubo,1,2021M5_cd,0101000000ABCC94D6DFF15940193BE12538693E40
20bfa39550b250086de5c59bae580ca8,学院路西段站,30.813637,104.150099,1,POINT(104.150099 30.813637),510112,20210521,ZhaoYubo,1,2021M5_cd,0101000000630AD6389B095A40C8D0B1834AD03E40
21196c6fa587ce6c53334bad4a06b44d,杉板桥路站,30.667343,104.118984,1,POINT(104.118984 30.667343),510112,20210521,ZhaoYubo,1,2021M5_cd,0101000000D32F116F9D075A40EB36A8FDD6AA3E40
21a38939f9901377da490fe0668ca76e,金牛公园,30.706866,104.020578,3,POINT(104.020578 30.706866),510112,20210521,ZhaoYubo,1,2021M5_cd,01010000001841632651015A4083A7902BF5B43E40
22ed6f69fd54df9899b5305cd87d6f0c,文翁石室,30.651581,104.054873,1,POINT(104.054873 30.651581),510112,20210521,ZhaoYubo,1,2021M5_cd,0101000000BD1B0B0A83035A40EAB12D03CEA63E40
23a0016cd296a267444be3d15b453c02,连山坡,30.590161,104.210368,1,POINT(104.210368 30.590161),510112,20210521,ZhaoYubo,1,2021M5_cd,0101000000FF0758AB760D5A40E95F92CA14973E40
23b85d6ebb970a12e42c6abd80c022c8,梁家巷,30.684741,104.080806,2,POINT(104.080806 30.684741),510112,20210521,ZhaoYubo,1,2021M5_cd,010100000084D4EDEC2B055A40F73AA92F4BAF3E40
2c1e68ae3df34922d763aae42d79e087,石佛,30.831039,104.100454,1,POINT(104.100454 30.831039),510112,20210521,ZhaoYubo,1,2021M5_cd,010100000027309DD66D065A4057B3CEF8BED43E40
2ca4ba84a427a44ecd41f1b951905f5b,高洪,30.692664,104.192461,1,POINT(104.192461 30.692664),510112,20210521,ZhaoYubo,1,2021M5_cd,01010000005930F147510C5A40D61D8B6D52B13E40
2f9ac3497c4dd946b0a025bb2f4b08bb,宝光大道南段站,30.817581,104.146638,2,POINT(104.146638 30.817581),510112,20210521,ZhaoYubo,1,2021M5_cd,01010000007496598462095A40BBD408FD4CD13E40
31cc541d4c09269dc21a188a44760d72,南西雅苑站,30.811455,104.158151,1,POINT(104.158151 30.811455),510112,20210521,ZhaoYubo,1,2021M5_cd,01010000001A355F251F0A5A40F92CCF83BBCF3E40
3252da3e804bf3aafe0e7f109d2f9318,太升南路,30.667173,104.074056,1,POINT(104.074056 30.667173),510112,20210521,ZhaoYubo,1,2021M5_cd,0101000000A5846055BD045A4032C687D9CBAA3E40
3457cef81ee88d550952803427188126,市运输公司站,30.385293,104.552536,2,POINT(104.552536 30.385293),510112,20210521,ZhaoYubo,1,2021M5_cd,01010000003677F4BF5C235A40B360E28FA2623E40
354a3e6ceea28ab6b75ef6a44f2655b8,心岛,30.578168,104.069989,1,POINT(104.069989 30.578168),510112,20210521,ZhaoYubo,1,2021M5_cd,01010000001B8524B37A045A40FF976BD102943E40
36a324c2c8da2be2b8216c4fe908a69d,花桥,30.444478,103.85516,1,POINT(103.855160 30.444478),510112,20210521,ZhaoYubo,1,2021M5_cd,01010000003B3602F1BAF659409FCA694FC9713E40
398f6b77ff3b160ca4bed5aa09e5f8fc,维也纳花园站,30.811185,104.179921,2,POINT(104.179921 30.811185),510112,20210521,ZhaoYubo,1,2021M5_cd,010100000045B75ED3830B5A407901F6D1A9CF3E40
4111f3e99418efff7e1ab4dd562289f5,百草路,30.735678,103.9771,1,POINT(103.977100 30.735678),510112,20210521,ZhaoYubo,1,2021M5_cd,0101000000FB3A70CE88FE5940FE62B66455BC3E40
42208085281028314676d40a0aed2216,军区总医院,30.747108,104.111623,1,POINT(104.111623 30.747108),510112,20210521,ZhaoYubo,1,2021M5_cd,0101000000CF9ECBD424075A4079944A7842BF3E40
4324e02c96942dff02399849c638a654,兴业北街,30.761292,103.981073,1,POINT(103.981073 30.761292),510112,20210521,ZhaoYubo,1,2021M5_cd,0101000000457F68E6C9FE5940D9B45208E4C23E40
457e6cb00a30b2de0e6f1c5555cff4d7,昭觉寺南路,30.705299,104.094278,1,POINT(104.094278 30.705299),510112,20210521,ZhaoYubo,1,2021M5_cd,0101000000DEAE97A608065A40C9E6AA798EB43E40
494378b846865b99ef744200df832a77,万科双水岸2站,30.791971,104.148358,2,POINT(104.148358 30.791971),510112,20210521,ZhaoYubo,1,2021M5_cd,010100000066868DB27E095A406361889CBECA3E40
4bffd826d0f1154443e142212865d755,升仙湖,30.707007,104.080942,1,POINT(104.080942 30.707007),510112,20210521,ZhaoYubo,1,2021M5_cd,0101000000DCB75A272E055A40070B2769FEB43E40
509fcdbf6d40b9db7803e9cfe1aafd4a,金星,30.758752,103.791832,1,POINT(103.791832 30.758752),510112,20210521,ZhaoYubo,1,2021M5_cd,010100000048FB1F60ADF259404CC631923DC23E40
50e8e22f16185d1c4908693c7cb70e08,火车北站,30.697913,104.071537,1,POINT(104.071537 30.697913),510112,20210521,ZhaoYubo,1,2021M5_cd,01010000000EDDEC0F94045A400874266DAAB23E40
5206ce25a94772cca164e33c5c552caf,华西坝,30.645251,104.063776,1,POINT(104.063776 30.645251),510112,20210521,ZhaoYubo,1,2021M5_cd,01010000004391EEE714045A4017B6662B2FA53E40
547601805716948773b50ae6b25e144c,芳草街,30.628503,104.049881,1,POINT(104.049881 30.628503),510112,20210521,ZhaoYubo,1,2021M5_cd,010100000046EC134031035A4019709692E5A03E40
5656136e3f22fa4dce7962c2d687cab4,万年场,30.646641,104.116651,1,POINT(104.116651 30.646641),510112,20210521,ZhaoYubo,1,2021M5_cd,0101000000ED82C13577075A40B340BB438AA53E40
5b9e6b6014fdbe553909634e5c94714a,张家寺,30.552574,104.095844,1,POINT(104.095844 30.552574),510112,20210521,ZhaoYubo,1,2021M5_cd,01010000002461DF4E22065A40B29E5A7D758D3E40
605b1c11fedf0858c7209d323329b010,菱角堰,30.614217,104.175671,1,POINT(104.175671 30.614217),510112,20210521,ZhaoYubo,1,2021M5_cd,0101000000C2F693313E0B5A40B1A547533D9D3E40
62e57f38edcf80843709ca150e528c1b,长城路,30.564541,103.985738,2,POINT(103.985738 30.564541),510112,20210521,ZhaoYubo,1,2021M5_cd,01010000002A1BD65416FF59404A404CC285903E40
642f7d344aacd8977cdef84eae63e8b0,菱窠路西,30.620365,104.118168,1,POINT(104.118168 30.620365),510112,20210521,ZhaoYubo,1,2021M5_cd,0101000000C2DB831090075A4042959A3DD09E3E40
66fd4e11b30ef2591e2c78c614e61599,花源,30.488165,103.878836,1,POINT(103.878836 30.488165),510112,20210521,ZhaoYubo,1,2021M5_cd,01010000000AA359D93EF85940450DA661F87C3E40
69cc71572a2bcc99035700a7d87d1ca6,航都大街,30.594095,103.934769,2,POINT(103.934769 30.594095),510112,20210521,ZhaoYubo,1,2021M5_cd,010100000023145B41D3FB594095B7239C16983E40
6b1e1c8ffe189969d5d0bd8de6c17b59,东升,30.574012,103.92323,1,POINT(103.923230 30.574012),510112,20210521,ZhaoYubo,1,2021M5_cd,0101000000E92B483316FB5940F5824F73F2923E40
6c1aa592193f7e9433bbcc8ba6100f14,桂湖中路站,30.825696,104.161686,2,POINT(104.161686 30.825696),510112,20210521,ZhaoYubo,1,2021M5_cd,0101000000268E3C10590A5A40227024D060D33E40
6e757f4aeee4c47cd6aa55b0155860a0,双水碾,30.715472,104.073881,1,POINT(104.073881 30.715472),510112,20210521,ZhaoYubo,1,2021M5_cd,0101000000EEB25F77BA045A402634492C29B73E40
6fedc763552c0df8a504b3b69f0c1392,净居寺,30.625242,104.102083,1,POINT(104.102083 30.625242),510112,20210521,ZhaoYubo,1,2021M5_cd,0101000000909E228788065A40EC1516DC0FA03E40
71a6e51c0f36ffabd01a5b50f91a6ec6,东郊记忆北大门站,30.672432,104.119695,3,POINT(104.119695 30.672432),510112,20210521,ZhaoYubo,1,2021M5_cd,0101000000A99F3715A9075A40ACC8E88024AC3E40
7260b349a0fc9f487fc190c7941466da,书房,30.578237,104.239765,1,POINT(104.239765 30.578237),510112,20210521,ZhaoYubo,1,2021M5_cd,01010000006E6E4C4F580F5A4050560C5707943E40
7a84b2026a03926979bb362912ef6f23,范家巷,30.761534,104.09798,1,POINT(104.097980 30.761534),510112,20210521,ZhaoYubo,1,2021M5_cd,010100000060EAE74D45065A40C5CA68E4F3C23E40
7b98c398759d623961289b05a053b1c7,鲤鱼湾,30.756959,104.097021,1,POINT(104.097021 30.756959),510112,20210521,ZhaoYubo,1,2021M5_cd,01010000009D81919735065A40B169A510C8C13E40
80c67f7ccb888eab1bbc9d4581b699d4,浣花里,30.653383,104.029387,1,POINT(104.029387 30.653383),510112,20210521,ZhaoYubo,1,2021M5_cd,01010000005DFB027AE1015A402BC3B81B44A73E40
81f3808db9aadd4cc208f81163bc65aa,桂水路口2站,30.815431,104.171934,3,POINT(104.171934 30.815431),510112,20210521,ZhaoYubo,1,2021M5_cd,010100000082C476F7000B5A4003250516C0D03E40
845111e7d36f327028848122ef76a736,成华大道三段,30.679688,104.139201,1,POINT(104.139201 30.679688),510112,20210521,ZhaoYubo,1,2021M5_cd,010100000083A44FABE8085A40D07B630800AE3E40
849d9321a741de70dfb81627ff1ed867,天府机场1号2号航站楼,30.290183,104.430572,1,POINT(104.430572 30.290183),510112,20210521,ZhaoYubo,1,2021M5_cd,0101000000B1A4DC7D8E1B5A40ECDADE6E494A3E40
85c0b7416d9684fa19f261685f884da2,芙蓉名城B区站,30.813331,104.171119,1,POINT(104.171119 30.813331),510112,20210521,ZhaoYubo,1,2021M5_cd,01010000005A2E1B9DF30A5A40AFD2DD7536D03E40
8722959ce8894077099426006fea58e3,天河路,30.748501,103.973946,1,POINT(103.973946 30.748501),510112,20210521,ZhaoYubo,1,2021M5_cd,01010000007B849A2155FE5940F705F4C29DBF3E40
8857ed6606d125c08a6e8a5689fec1b2,凤凰山公园,30.733633,104.076755,1,POINT(104.076755 30.733633),510112,20210521,ZhaoYubo,1,2021M5_cd,01010000007DB3CD8DE9045A4031444E5FCFBB3E40
8a9a451c8826750db5a041cb74f6793e,顺风村,30.576565,104.016051,1,POINT(104.016051 30.576565),510112,20210521,ZhaoYubo,1,2021M5_cd,01010000005C04C6FA06015A40AB048BC399933E40
8b8faa783be5f066a0fb58eac5034e65,光华公园,30.687037,103.858444,1,POINT(103.858444 30.687037),510112,20210521,ZhaoYubo,1,2021M5_cd,0101000000A35C1ABFF0F65940572426A8E1AF3E40
8c49f7ae499939b0cea46a7753f8c06d,红牌楼,30.637418,104.027763,1,POINT(104.027763 30.637418),510112,20210521,ZhaoYubo,1,2021M5_cd,01010000007C4276DEC6015A40B9E177D32DA33E40
8d43343484c28a53a152599ec7395947,电子路中段站,30.817404,104.153985,1,POINT(104.153985 30.817404),510112,20210521,ZhaoYubo,1,2021M5_cd,0101000000C6C4E6E3DA095A409D9E776341D13E40
8e1f2ac1839eac427750e2dd2ecffa44,尚锦路,30.78004,103.921328,1,POINT(103.921328 30.780040),510112,20210521,ZhaoYubo,1,2021M5_cd,0101000000E738B709F7FA5940649291B3B0C73E40
8e66f8f27d4c214e4b6560abe3d9ff0f,陆肖,30.54024,104.095829,1,POINT(104.095829 30.540240),510112,20210521,ZhaoYubo,1,2021M5_cd,01010000008940F50F22065A40B5FD2B2B4D8A3E40
924b7dafb1ff20dd0f34240b84579d71,皇经楼,30.599181,104.112678,1,POINT(104.112678 30.599181),510112,20210521,ZhaoYubo,1,2021M5_cd,0101000000A33EC91D36075A4074620FED63993E40
928e6caba4fe79f4a4c4f3eb84fd012c,龙潭寺,30.705523,104.16364,1,POINT(104.163640 30.705523),510112,20210521,ZhaoYubo,1,2021M5_cd,01010000005114E813790A5A406893C3279DB43E40
934f264566bc2fc4c605026cf525d615,金科北路,30.723303,104.00431,1,POINT(104.004310 30.723303),510112,20210521,ZhaoYubo,1,2021M5_cd,0101000000EE42739D46005A404419AA622AB93E40
93e1143425727e9291291c9898bf321b,东郊记忆,30.67097,104.126534,1,POINT(104.126534 30.670970),510112,20210521,ZhaoYubo,1,2021M5_cd,010100000041F50F2219085A40DD989EB0C4AB3E40
96db0d2087f77c55a6f4d9b2546aa92f,韦家碾,30.720018,104.084324,1,POINT(104.084324 30.720018),510112,20210521,ZhaoYubo,1,2021M5_cd,010100000025917D9065055A400588821953B83E40
989339ae301782d91c2ff27aebbe8dab,湖滨路口站,30.821635,104.152144,3,POINT(104.152144 30.821635),510112,20210521,ZhaoYubo,1,2021M5_cd,0101000000171230BABC095A40BC3FDEAB56D23E40
98f47a05596d33ec85e90cccf85f1f88,文殊院,30.674949,104.065528,1,POINT(104.065528 30.674949),510112,20210521,ZhaoYubo,1,2021M5_cd,01010000003A3E5A9C31045A40C9772975C9AC3E40
9901c64ee66fec22c7e68e801a0d3278,双流西站,30.546096,103.915182,1,POINT(103.915182 30.546096),510112,20210521,ZhaoYubo,1,2021M5_cd,0101000000D3F8855792FA5940F6798CF2CC8B3E40
9ae388d5f15d2b40c159250c681d086f,蜀鑫路,30.691186,103.992637,1,POINT(103.992637 30.691186),510112,20210521,ZhaoYubo,1,2021M5_cd,01010000002CF3565D87FF5940FB73D190F1B03E40
9d39efb790779b9d509f18dcbbe8d468,川大望江校区,30.627612,104.07311,1,POINT(104.073110 30.627612),510112,20210521,ZhaoYubo,1,2021M5_cd,0101000000ADC090D5AD045A40C093162EABA03E40
9dc73f9618c0fd6188662e1fa36c5fc3,红高路,30.772112,103.934995,1,POINT(103.934995 30.772112),510112,20210521,ZhaoYubo,1,2021M5_cd,01010000001BBB44F5D6FB594062D9CC21A9C53E40
a06a4c9eb4d87cb1c28fbc9492402bde,桂湖河畔三期站,30.826953,104.149614,3,POINT(104.149614 30.826953),510112,20210521,ZhaoYubo,1,2021M5_cd,01010000008541994693095A403F541A31B3D33E40
a5ca43a2cd66125f232c9476a6ea700a,中医大省医院,30.668577,104.038173,1,POINT(104.038173 30.668577),510112,20210521,ZhaoYubo,1,2021M5_cd,0101000000C6A52A6D71025A4098DBBDDC27AB3E40
a6d7d8a19ce88d8268628421d243d3e4,清江西路,30.679186,103.996291,3,POINT(103.996291 30.679186),510112,20210521,ZhaoYubo,1,2021M5_cd,01010000002593533BC3FF5940ACE63922DFAD3E40
a9b071889e04e7590d1a22b3436248cf,西南交大,30.697165,104.046725,2,POINT(104.046725 30.697165),510112,20210521,ZhaoYubo,1,2021M5_cd,0101000000F5B9DA8AFD025A4074EACA6779B23E40
ada09978afb2cb0d688e6b8e282031dd,谢家渡,30.566379,103.996269,1,POINT(103.996269 30.566379),510112,20210521,ZhaoYubo,1,2021M5_cd,010100000031410DDFC2FF59402524D236FE903E40
afca305513240d82728ba9340937ca29,牛市口,30.640318,104.105121,2,POINT(104.105121 30.640318),510112,20210521,ZhaoYubo,1,2021M5_cd,0101000000DC476E4DBA065A40460A65E1EBA33E40
b05b94333499c9b0cd722dcc05f82afc,华兴,30.601092,103.999644,1,POINT(103.999644 30.601092),510112,20210521,ZhaoYubo,1,2021M5_cd,010100000021E9D32AFAFF594022E3512AE1993E40
b3dd1668dab1d393f52fb95e3fd2386b,武侯大道金江中路口,30.615372,103.959565,1,POINT(103.959565 30.615372),510112,20210521,ZhaoYubo,1,2021M5_cd,0101000000B858518369FD5940C6DFF604899D3E40
b4fe24480e89e994b7ca1e1f26e44dab,界牌,30.585399,104.222757,1,POINT(104.222757 30.585399),510112,20210521,ZhaoYubo,1,2021M5_cd,0101000000207D93A6410E5A40711C78B5DC953E40
b5f4e6eed4d3057853bdf2818b96b7bb,益州大道天府三街口站,30.549796,104.054361,1,POINT(104.054361 30.549796),510112,20210521,ZhaoYubo,1,2021M5_cd,0101000000624B8FA67A035A40BC783F6EBF8C3E40
c76e22898ffd87f92aa042a84586967a,圣灯公园,30.692017,104.151079,2,POINT(104.151079 30.692017),510112,20210521,ZhaoYubo,1,2021M5_cd,010100000031074147AB095A40AA46AF0628B13E40
c7a35b417abafdba4fbd817b98bb0991,龙桥路,30.607623,103.942759,1,POINT(103.942759 30.607623),510112,20210521,ZhaoYubo,1,2021M5_cd,01010000009E40D82956FC5940234C512E8D9B3E40
c95d90ddfe43e84678d0794ee53ad53f,春熙路,30.655728,104.076967,2,POINT(104.076967 30.655728),510112,20210521,ZhaoYubo,1,2021M5_cd,0101000000C2F7FE06ED045A404D124BCADDA73E40
cb72e77dfcbc24574d96c1de2fdf3c94,新川路,30.518113,104.097967,2,POINT(104.097967 30.518113),510112,20210521,ZhaoYubo,1,2021M5_cd,01010000009545611745065A40E8A1B60DA3843E40
cc1244b80295ebb55ac5958f94ee7f82,泉水路,30.732772,104.055885,1,POINT(104.055885 30.732772),510112,20210521,ZhaoYubo,1,2021M5_cd,010100000091D5AD9E93035A40AD6C1FF296BB3E40
d2d890deb9b32ef623e46b3a9b9ff35c,西南财大,30.672996,104.017746,1,POINT(104.017746 30.672996),510112,20210521,ZhaoYubo,1,2021M5_cd,0101000000A1681EC022015A40BD56427749AC3E40
d4eb6c5d41d014df734e46708ef6a1f1,麓山大道,30.485486,104.100884,1,POINT(104.100884 30.485486),510112,20210521,ZhaoYubo,1,2021M5_cd,0101000000232C2AE274065A4076AA7CCF487C3E40
d5110efe6a3a935806ce826ac63c8b0f,龙港,30.538522,103.971244,1,POINT(103.971244 30.538522),510112,20210521,ZhaoYubo,1,2021M5_cd,0101000000EB1B98DC28FE5940302DEA93DC893E40
d600827f0e4164e61fcb0d8dd6069c65,世纪城,30.55733,104.066426,1,POINT(104.066426 30.557330),510112,20210521,ZhaoYubo,1,2021M5_cd,0101000000AA66D65240045A406614CB2DAD8E3E40
d728bdace92ecaa6d4eaf3c9ba94e144,地铁华桂路站,30.82711,104.095303,1,POINT(104.095303 30.827110),510112,20210521,ZhaoYubo,1,2021M5_cd,01010000007C0DC17119065A40CF31207BBDD33E40
da0fc991e87d0f79da48f7f32c5aa91f,万年路,30.657212,104.112408,1,POINT(104.112408 30.657212),510112,20210521,ZhaoYubo,1,2021M5_cd,0101000000C3F352B131075A40EC89AE0B3FA83E40
dc57f7bd59347fe59f991a31c536e557,青杠,30.728033,104.023532,1,POINT(104.023532 30.728033),510112,20210521,ZhaoYubo,1,2021M5_cd,0101000000359A5C8C81015A40A568E55E60BA3E40
e108d700a6268a436e7825f82bdeee0e,市二医院,30.662937,104.08191,2,POINT(104.081910 30.662937),510112,20210521,ZhaoYubo,1,2021M5_cd,0101000000C8CD70033E055A40F04E3E3DB6A93E40
e11e4582c6bd5219416c23237342dcd4,天府熊猫塔,30.664013,104.092656,4,POINT(104.092656 30.664013),510112,20210521,ZhaoYubo,1,2021M5_cd,0101000000CE716E13EE055A406D1E87C1FCA93E40
e5f127a92ffe2540fc179478075265bd,二仙桥站,30.682076,104.125168,3,POINT(104.125168 30.682076),510112,20210521,ZhaoYubo,1,2021M5_cd,01010000005EA0A4C002085A40F16261889CAE3E40
e9083bc46025dab267b3efa908abcd66,三里坝,30.55637,103.912492,1,POINT(103.912492 30.556370),510112,20210521,ZhaoYubo,1,2021M5_cd,01010000002577D84466FA5940BC79AA436E8E3E40
eaf32b16af44a6c5bbca380fd9804048,通惠门,30.664543,104.046061,1,POINT(104.046061 30.664543),510112,20210521,ZhaoYubo,1,2021M5_cd,0101000000BF27D6A9F2025A4025C9737D1FAA3E40
eb6ba5c781fd11b63b45a9f57998d347,龙泉驿,30.562725,104.265585,1,POINT(104.265585 30.562725),510112,20210521,ZhaoYubo,1,2021M5_cd,0101000000B9533A58FF105A4040A4DFBE0E903E40
eb6e62017c110f1066e67d699360ef00,高新,30.596821,104.061351,1,POINT(104.061351 30.596821),510112,20210521,ZhaoYubo,1,2021M5_cd,0101000000ECA4BE2CED035A40E690D442C9983E40
ece655e0be2286744b3fc288cfb20018,新城花园站,30.813712,104.169387,3,POINT(104.169387 30.813712),510112,20210521,ZhaoYubo,1,2021M5_cd,01010000008657923CD70A5A40DD5CFC6D4FD03E40
edc3b766a1f89afec3294f071c939410,月儿村,30.561488,103.962649,1,POINT(103.962649 30.561488),510112,20210521,ZhaoYubo,1,2021M5_cd,0101000000BC218D0A9CFD5940B11875ADBD8F3E40
f1bddd9d6391a505c01c3f1398ab8967,北部商贸城,30.793424,104.086419,1,POINT(104.086419 30.793424),510112,20210521,ZhaoYubo,1,2021M5_cd,010100000032B08EE387055A408CDCD3D51DCB3E40
f27b0fc3d3e48c42bfcbafd05cde017e,非遗博览园,30.676841,103.920394,1,POINT(103.920394 30.676841),510112,20210521,ZhaoYubo,1,2021M5_cd,0101000000D15B3CBCE7FA59408997A77345AD3E40
f44a76a9ece85e66a6db1e7eb4d66d8c,区体育中心站,30.828755,104.150982,3,POINT(104.150982 30.828755),510112,20210521,ZhaoYubo,1,2021M5_cd,0101000000381268B0A9095A408065A54929D43E40
f59bc2d68f60e920fff3d1682a572d39,天府大道世纪城路口北站,30.564781,104.065932,3,POINT(104.065932 30.564781),510112,20210521,ZhaoYubo,1,2021M5_cd,0101000000A2F0D93A38045A40F566D47C95903E40
fb2b6e3a1340c1c043716bec5f2df4f7,涌泉,30.681146,103.870977,1,POINT(103.870977 30.681146),510112,20210521,ZhaoYubo,1,2021M5_cd,01010000005DA45016BEF759401CCD91955FAE3E40
fbdc756be7a8ac78ee3a7bac6b4b27a1,桂林小学站,30.829425,104.193147,4,POINT(104.193147 30.829425),510112,20210521,ZhaoYubo,1,2021M5_cd,010100000083143C855C0C5A401C7C613255D43E40
ff0e3e8f81b4ec2b0c6ec99aeb12a51b,宽窄巷子,30.66783,104.048211,2,POINT(104.048211 30.667830),510112,20210521,ZhaoYubo,1,2021M5_cd,0101000000AD1397E315035A40A54929E8F6AA3E40
035439a0258ee1b09a570bd504cdb5e0,人民公园,30.6623,104.053725,1,POINT(104.053725 30.662300),510112,20210521,ZhaoYubo,1,2021M5_cd,0101000000917EFB3A70035A400B24287E8CA93E40
052594962eb3b14efe36324c79a65db8,金周路,30.72421,103.993888,1,POINT(103.993888 30.724210),510112,20210521,ZhaoYubo,1,2021M5_cd,0101000000C2F869DC9BFF5940A86F99D365B93E40
0571ec1dbc33446793663f8e4ede4447,桂溪生态公园,30.562905,104.063194,1,POINT(104.063194 30.562905),510112,20210521,ZhaoYubo,1,2021M5_cd,01010000006BD3D85E0B045A4040C1C58A1A903E40
096363dcece428802cdbc7c93c00f3dd,万盛,30.678008,103.816699,1,POINT(103.816699 30.678008),510112,20210521,ZhaoYubo,1,2021M5_cd,010100000042EBE1CB44F45940266DAAEE91AD3E40
0c2ff1371ddc907b85ecb255419b6f2a,洞子口,30.724369,104.055895,1,POINT(104.055895 30.724369),510112,20210521,ZhaoYubo,1,2021M5_cd,0101000000A3409FC893035A40793C2D3F70B93E40
0c70448ae7f2890a9be2ef98d4ac065f,广福,30.481176,104.066824,1,POINT(104.066824 30.481176),510112,20210521,ZhaoYubo,1,2021M5_cd,0101000000A0A52BD846045A40BF9EAF592E7B3E40
0c8d28b94164e79559bda073ff548a95,琉璃场,30.610002,104.097245,2,POINT(104.097245 30.610002),510112,20210521,ZhaoYubo,1,2021M5_cd,0101000000C5AC174339065A409E7E5017299C3E40
0fecb44e30a3b13ff40212b1ac944851,学院路东段站,30.810696,104.160981,3,POINT(104.160981 30.810696),510112,20210521,ZhaoYubo,1,2021M5_cd,0101000000C19140834D0A5A407EFFE6C589CF3E40
1114768e2243956ae2e47a895cb2e522,红石公园,30.466738,104.0705,1,POINT(104.070500 30.466738),510112,20210521,ZhaoYubo,1,2021M5_cd,01010000008D976E1283045A40EACC3D247C773E40
1117eb254dc62e0ec6b0c75e17137a82,永丰,30.630638,104.044446,1,POINT(104.044446 30.630638),510112,20210521,ZhaoYubo,1,2021M5_cd,0101000000081C0934D8025A40679DF17D71A13E40
12f509d907bff9ac81c8f78c06d692d2,明蜀王陵,30.650709,104.19393,1,POINT(104.193930 30.650709),510112,20210521,ZhaoYubo,1,2021M5_cd,0101000000A6ED5F59690C5A407E3672DD94A63E40
15bb1b6bb42f02058ccc5a549b8e8ecc,天缘路口站,30.818243,104.150485,1,POINT(104.150485 30.818243),510112,20210521,ZhaoYubo,1,2021M5_cd,01010000007862D68BA1095A40512E8D5F78D13E40
1600f45e289fb9f0211bb2920cd66932,磨子桥,30.63984,104.073413,1,POINT(104.073413 30.639840),510112,20210521,ZhaoYubo,1,2021M5_cd,01010000007B8670CCB2045A4032ACE28DCCA33E40
16283aac176b696b01c65728e6da24aa,蜀龙大道毗河东路口站,30.789011,104.15539,3,POINT(104.155390 30.789011),510112,20210521,ZhaoYubo,1,2021M5_cd,01010000000708E6E8F1095A402B2FF99FFCC93E40
1dcc69785ca36ddc06cfa2e94afbf6a1,原野庄园站,30.813973,104.148399,1,POINT(104.148399 30.813973),510112,20210521,ZhaoYubo,1,2021M5_cd,010100000095F0845E7F095A40B7D3D68860D03E40
1ea1550559a09290899a5aa6ec33f0a5,瓦窑滩,30.664697,103.93948,1,POINT(103.939480 30.664697),510112,20210521,ZhaoYubo,1,2021M5_cd,0101000000C0CFB87020FC5940D3BF249529AA3E40
1f86de9cfd29fed641513cda1158161d,双桥路,30.648833,104.110966,1,POINT(104.110966 30.648833),510112,20210521,ZhaoYubo,1,2021M5_cd,0101000000F33D23111A075A40C99063EB19A63E40
20a07ec23e10f4cf800178cbc33fab12,和平街,30.803115,103.885195,1,POINT(103.885195 30.803115),510112,20210521,ZhaoYubo,1,2021M5_cd,01010000004BE5ED08A7F8594052EDD3F198CD3E40
21721a8a2581c05b1117f54213621db3,三圣花乡,30.586672,104.149776,1,POINT(104.149776 30.586672),510112,20210521,ZhaoYubo,1,2021M5_cd,0101000000726E13EE95095A409A7ADD2230963E40
224d6d53c813ea99bb7c756a96d3123c,三瓦窑,30.606538,104.07494,1,POINT(104.074940 30.606538),510112,20210521,ZhaoYubo,1,2021M5_cd,0101000000624A24D1CB045A4000C80913469B3E40
24ba05ac84ce564836ed665b6c7914e4,团结新区,30.806772,104.156276,1,POINT(104.156276 30.806772),510112,20210521,ZhaoYubo,1,2021M5_cd,010100000095490D6D000A5A4019541B9C88CE3E40
2622f3a24c07f0a0ff2861c24338855e,医学院小区站,30.830754,104.191931,1,POINT(104.191931 30.830754),510112,20210521,ZhaoYubo,1,2021M5_cd,0101000000AB05F698480C5A406C054D4BACD43E40
2862a89d8c3a1de834be114acc308153,博海路口站,30.812306,104.155117,1,POINT(104.155117 30.812306),510112,20210521,ZhaoYubo,1,2021M5_cd,01010000006F83DA6FED095A4036583849F3CF3E40
2c4007d9aa35b206fbe117b705b10aa7,琉三路,30.602772,104.095634,1,POINT(104.095634 30.602772),510112,20210521,ZhaoYubo,1,2021M5_cd,0101000000AF9811DE1E065A40CCF10A444F9A3E40
2d2c0f11bf21b2a1499d76f5249a7216,踏水桥,30.677673,104.106094,1,POINT(104.106094 30.677673),510112,20210521,ZhaoYubo,1,2021M5_cd,010100000051137D3ECA065A40D8614CFA7BAD3E40
2e7282cdf3f07ada294ebc16aedeac09,杜甫草堂,30.665003,104.026624,1,POINT(104.026624 30.665003),510112,20210521,ZhaoYubo,1,2021M5_cd,01010000007A522635B4015A40ECBDF8A23DAA3E40
318893e3309911a32798a30b8910803d,地铁钟楼站,30.82371,104.172816,3,POINT(104.172816 30.823710),510112,20210521,ZhaoYubo,1,2021M5_cd,01010000006F0ED76A0F0B5A405E6397A8DED23E40
333209320a5101b8356614585a77cdbc,动物园,30.716019,104.100597,1,POINT(104.100597 30.716019),510112,20210521,ZhaoYubo,1,2021M5_cd,0101000000D844662E70065A408B506C054DB73E40
333d3334a7d5b7f81b0b42f67ff88c15,蜀新大道,30.793704,103.901444,1,POINT(103.901444 30.793704),510112,20210521,ZhaoYubo,1,2021M5_cd,01010000003ACB2C42B1F9594053B4722F30CB3E40
350eed06c112858340d167f979dc239a,上沙河铺,30.626127,104.120099,1,POINT(104.120099 30.626127),510112,20210521,ZhaoYubo,1,2021M5_cd,01010000001152B7B3AF075A408124ECDB49A03E40
351315fc194a0cab41976077d76d967e,新都花园二期站,30.817367,104.169223,1,POINT(104.169223 30.817367),510112,20210521,ZhaoYubo,1,2021M5_cd,0101000000C9AEB48CD40A5A4063D4B5F63ED13E40
37ef566f80da5a5e3e17e22e629597ee,李家沱,30.691777,104.091987,1,POINT(104.091987 30.691777),510112,20210521,ZhaoYubo,1,2021M5_cd,01010000000F2A711DE3055A40FF1F274C18B13E40
38e12ce2643a4754b962423a86b2380a,二江寺,30.50216,104.03331,1,POINT(104.033310 30.502160),510112,20210521,ZhaoYubo,1,2021M5_cd,01010000004E2844C021025A40FF5BC98E8D803E40
3ddd661f357e9c0ca1cec77e5f67e48d,高朋大道,30.619929,104.031364,2,POINT(104.031364 30.619929),510112,20210521,ZhaoYubo,1,2021M5_cd,0101000000649126DE01025A408CD7BCAAB39E3E40
4115c1130a68624915f5f8ec9882b647,锦城广场,30.570181,104.064028,1,POINT(104.064028 30.570181),510112,20210521,ZhaoYubo,1,2021M5_cd,0101000000CF81E50819045A40F3CCCB61F7913E40
4170fe5eebb984c6ba5f1c4212acdf5c,桂龙路,30.720802,104.185029,1,POINT(104.185029 30.720802),510112,20210521,ZhaoYubo,1,2021M5_cd,0101000000F1F3DF83D70B5A4032E4D87A86B83E40
41715ec391724ef1ab5e5aa22b6b088f,牛王庙公交站(地铁牛王庙站B2口),30.646992,104.092623,2,POINT(104.092623 30.646992),510112,20210521,ZhaoYubo,1,2021M5_cd,0101000000E0F60489ED055A400DC68844A1A53E40
43ac52b6478298755560f2ba5dc6208a,杨柳河,30.683576,103.828936,1,POINT(103.828936 30.683576),510112,20210521,ZhaoYubo,1,2021M5_cd,0101000000889E94490DF559409B5434D6FEAE3E40
44947fb3f471c18b4b63d6457894d56d,青岛路,30.460647,104.099429,1,POINT(104.099429 30.460647),510112,20210521,ZhaoYubo,1,2021M5_cd,010100000089D1730B5D065A40220038F6EC753E40
488b5560ed39ff39a21f9fb953a45aea,黄水,30.521798,103.889269,1,POINT(103.889269 30.521798),510112,20210521,ZhaoYubo,1,2021M5_cd,01010000002F1686C8E9F85940431EC18D94853E40
507f08cb16bed30705410678994908c1,武侯立交,30.629583,103.991147,1,POINT(103.991147 30.629583),510112,20210521,ZhaoYubo,1,2021M5_cd,0101000000D3A1D3F36EFF5940191EFB592CA13E40
50e108d5be508b1411847eb4e1c05940,南湖立交,30.491026,104.030698,1,POINT(104.030698 30.491026),510112,20210521,ZhaoYubo,1,2021M5_cd,01010000005E83BEF4F6015A40577C43E1B37D3E40
5669b8f99fc20b8063b4500f34a35459,万科双水岸1站,30.793149,104.145734,1,POINT(104.145734 30.793149),510112,20210521,ZhaoYubo,1,2021M5_cd,010100000094FAB2B453095A40E8DA17D00BCB3E40
5acf25e993a5e78efac00513a2389215,望丛祠,30.809906,103.875967,1,POINT(103.875967 30.809906),510112,20210521,ZhaoYubo,1,2021M5_cd,01010000000458E4D70FF859408DD5E6FF55CF3E40
5bfa69ae450d34dad833cb1f23c6f411,地铁三河场站,30.787034,104.13596,3,POINT(104.135960 30.787034),510112,20210521,ZhaoYubo,1,2021M5_cd,01010000001B649291B3085A400ED76A0F7BC93E40
5c55e39c4b24765a24f68de2ae6d4d4e,临江,30.350603,104.472368,1,POINT(104.472368 30.350603),510112,20210521,ZhaoYubo,1,2021M5_cd,010100000053EBFD463B1E5A4026E1421EC1593E40
5f8468d1aef0ee23467fe4ccf526fe1b,中和,30.560994,104.093537,1,POINT(104.093537 30.560994),510112,20210521,ZhaoYubo,1,2021M5_cd,0101000000D2FD9C82FC055A409240834D9D8F3E40
602f29ab0ba34a42e54fb60bb932fc7a,昌公堰,30.450783,104.09136,1,POINT(104.091360 30.450783),510112,20210521,ZhaoYubo,1,2021M5_cd,0101000000670A9DD7D8055A40C097C28366733E40
61482acaf12a6b424ed71bb5e9511aa9,双凤桥,30.618654,103.967014,1,POINT(103.967014 30.618654),510112,20210521,ZhaoYubo,1,2021M5_cd,01010000008C31B08EE3FD5940228AC91B609E3E40
6581902f651df12c6c9613a2e9fd5f1e,钓鱼嘴,30.438989,104.030134,1,POINT(104.030134 30.438989),510112,20210521,ZhaoYubo,1,2021M5_cd,0101000000DA1F28B7ED015A40C24D469561703E40
65d8439100a2f880af4a4f7c6a345297,武侯祠,30.647182,104.047943,2,POINT(104.047943 30.647182),510112,20210521,ZhaoYubo,1,2021M5_cd,01010000009E44847F11035A40548F34B8ADA53E40
65f9da5b11ef195fc65de513d7c3c648,蓝家店,30.418965,104.102197,1,POINT(104.102197 30.418965),510112,20210521,ZhaoYubo,1,2021M5_cd,0101000000F52F49658A065A402C2B4D4A416B3E40
678f98e953cec32469babc141de0afb8,海桐街南,30.608615,104.13456,1,POINT(104.134560 30.608615),510112,20210521,ZhaoYubo,1,2021M5_cd,010100000062D68BA19C085A40E4DA5031CE9B3E40
6c321bafc45fb2516b228abfcf0bf7e7,玉双路,30.656125,104.096425,1,POINT(104.096425 30.656125),510112,20210521,ZhaoYubo,1,2021M5_cd,01010000001361C3D32B065A408716D9CEF7A73E40
6f67433c2e2d0853a123fd8d004f315c,三元,30.584332,104.023785,1,POINT(104.023785 30.584332),510112,20210521,ZhaoYubo,1,2021M5_cd,0101000000AA4885B185015A409B012EC896953E40
6fd1cce54b416e6ec03014d466248d44,天府三街,30.548665,104.0667,1,POINT(104.066700 30.548665),510112,20210521,ZhaoYubo,1,2021M5_cd,01010000002AA913D044045A40B875374F758C3E40
70b20651e138c0e510a721594376c30f,东湖公园,30.622408,104.085758,3,POINT(104.085758 30.622408),510112,20210521,ZhaoYubo,1,2021M5_cd,0101000000B4571F0F7D055A40CEC47421569F3E40
762c28c8146bd34962c2d2526a66036d,四川师大,30.611525,104.113339,1,POINT(104.113339 30.611525),510112,20210521,ZhaoYubo,1,2021M5_cd,0101000000209738F240075A40B8AF03E78C9C3E40
768de00b8b52d5c17efc89e1e5545b49,龙灯山,30.511475,104.098677,1,POINT(104.098677 30.511475),510112,20210521,ZhaoYubo,1,2021M5_cd,010100000083F755B950065A40BBB88D06F0823E40
770aa445244902d63b87e3f42abfa16b,省骨科医院,30.654243,104.038631,1,POINT(104.038631 30.654243),510112,20210521,ZhaoYubo,1,2021M5_cd,0101000000276728EE78025A400EA320787CA73E40
7c2f44388204e91836238f6835a99656,十陵,30.648317,104.169978,1,POINT(104.169978 30.648317),510112,20210521,ZhaoYubo,1,2021M5_cd,010100000087C267EBE00A5A40DA70581AF8A53E40
82b4b4a3fd0f5389520f490185aa3fd8,凤凰大街,30.679701,103.887435,1,POINT(103.887435 30.679701),510112,20210521,ZhaoYubo,1,2021M5_cd,0101000000D9942BBCCBF85940FA0E7EE200AE3E40
852882611fad474d0b5ba9042661afad,一品天下,30.691518,104.017967,1,POINT(104.017967 30.691518),510112,20210521,ZhaoYubo,1,2021M5_cd,0101000000105A0F5F26015A406798DA5207B13E40
8651f6e77d86f5a75e8302d89bc825d7,洪河,30.607493,104.155025,1,POINT(104.155025 30.607493),510112,20210521,ZhaoYubo,1,2021M5_cd,0101000000FE43FAEDEB095A40878C47A9849B3E40
8758a0b840577b1c1f1abdc444dd8123,天府广场,30.659877,104.063248,1,POINT(104.063248 30.659877),510112,20210521,ZhaoYubo,1,2021M5_cd,010100000065E256410C045A40F261F6B2EDA83E40
8a9bc0b61392fc331bf2365f7a30bfdc,武汉路,30.444106,104.070404,1,POINT(104.070404 30.444106),510112,20210521,ZhaoYubo,1,2021M5_cd,01010000007C60C77F81045A4017F549EEB0713E40
8f75509df7a88f21554229f72721e345,汉嘉国际站,30.81015,104.184221,3,POINT(104.184221 30.810150),510112,20210521,ZhaoYubo,1,2021M5_cd,0101000000218FE046CA0B5A40BADA8AFD65CF3E40
9078c2dfd74eb67f0e7e257428564fce,金沙滨河公园,30.68823,104.000026,1,POINT(104.000026 30.688230),510112,20210521,ZhaoYubo,1,2021M5_cd,010100000095490D6D00005A4047205ED72FB03E40
9084ffff7999facf01315d9045078af2,蜀汉路东,30.685362,104.026645,1,POINT(104.026645 30.685362),510112,20210521,ZhaoYubo,1,2021M5_cd,010100000086E63A8DB4015A40D1EB4FE273AF3E40
946456057082b6294bc8e88b81561686,双流广场,30.56707,103.918116,1,POINT(103.918116 30.567070),510112,20210521,ZhaoYubo,1,2021M5_cd,0101000000CC7B9C69C2FA5940F08AE07F2B913E40
96a71ad9408576fa9275c290a1ad4c6f,明光,30.661174,103.86634,1,POINT(103.866340 30.661174),510112,20210521,ZhaoYubo,1,2021M5_cd,0101000000DDCD531D72F759402BF702B342A93E40
9a2b79a80c473d97ae6a8fc19029cc68,三岔,30.313949,104.314769,1,POINT(104.314769 30.313949),510112,20210521,ZhaoYubo,1,2021M5_cd,0101000000DB32E02C25145A40A69C2FF65E503E40
9e30b4d01d39b4f5ef40825f2219c950,龙马路,30.460063,104.017479,1,POINT(104.017479 30.460063),510112,20210521,ZhaoYubo,1,2021M5_cd,010100000079573D601E015A40831953B0C6753E40
9ebd6cc428d4ffda18b6c7d2ab360d57,静安路站,30.814836,104.176909,2,POINT(104.176909 30.814836),510112,20210521,ZhaoYubo,1,2021M5_cd,01010000008E57207A520B5A407C9A931799D03E40
9fc4eca415925b4d1484af15752c3691,石羊,30.587249,104.029649,1,POINT(104.029649 30.587249),510112,20210521,ZhaoYubo,1,2021M5_cd,0101000000FC56EBC4E5015A40D49B51F355963E40
a5226ef4875136bac740a49b743f5335,成都行政学院,30.59948,104.168494,1,POINT(104.168494 30.599480),510112,20210521,ZhaoYubo,1,2021M5_cd,01010000009FE40E9BC80A5A40289B728577993E40
a69c3a5dc4c1e0360c1e09c8363a37cf,三河场,30.787053,104.136388,1,POINT(104.136388 30.787053),510112,20210521,ZhaoYubo,1,2021M5_cd,010100000047E4BB94BA085A40FC372F4E7CC93E40
ad6c656df6465a9b1a076c6271917d27,花照壁,30.699083,104.03839,1,POINT(104.038390 30.699083),510112,20210521,ZhaoYubo,1,2021M5_cd,0101000000959F54FB74025A4088307E1AF7B23E40
b06aee6ad01b6dd9831aab60d165daa7,旃檀寺,30.801191,104.102383,1,POINT(104.102383 30.801191),510112,20210521,ZhaoYubo,1,2021M5_cd,0101000000A62A6D718D065A407BD976DA1ACD3E40
b06c2cab006bd573a59802d0d3439570,橄榄郡站,30.818458,104.183012,2,POINT(104.183012 30.818458),510112,20210521,ZhaoYubo,1,2021M5_cd,0101000000A3B1F677B60B5A404A26A77686D13E40
b43662a95cf50a85dc41702b758d3d92,香域中央站,30.800575,104.164749,2,POINT(104.164749 30.800575),510112,20210521,ZhaoYubo,1,2021M5_cd,01010000001EC3633F8B0A5A40C5FEB27BF2CC3E40
b54b54ca2f3615f3ddb6f23fa1793534,天宇路,30.756796,103.952368,1,POINT(103.952368 30.756796),510112,20210521,ZhaoYubo,1,2021M5_cd,01010000007270E998F3FC59405EBEF561BDC13E40
bbbf526af96ab1e30588610e88fcd800,高铁南站,30.356273,104.517547,5,POINT(104.517547 30.356273),510112,20210521,ZhaoYubo,1,2021M5_cd,010100000025C9737D1F215A40A47213B5345B3E40
bd49236ca3febad3b21c0eaebf0dd6c0,迎宾大道,30.715692,104.011178,1,POINT(104.011178 30.715692),510112,20210521,ZhaoYubo,1,2021M5_cd,0101000000D21BEE23B7005A404302469737B73E40
bd4c3e2a838fac2318d850b65517988c,汇泉南路北站,30.637543,104.106118,2,POINT(104.106118 30.637543),510112,20210521,ZhaoYubo,1,2021M5_cd,010100000015E126A3CA065A4032CB9E0436A33E40
bd651186917a369d197897cc7ac94026,驷马桥,30.697963,104.091455,2,POINT(104.091455 30.697963),510112,20210521,ZhaoYubo,1,2021M5_cd,010100000090831266DA055A406CD102B4ADB23E40
c163a1d92f711a8003cd4edde3934128,石油大学,30.821183,104.184159,1,POINT(104.184159 30.821183),510112,20210521,ZhaoYubo,1,2021M5_cd,0101000000E690D442C90B5A40FB07910C39D23E40
c1c7fdba068395891ca0d637141cb93b,阳公桥,30.652151,103.994351,1,POINT(103.994351 30.652151),510112,20210521,ZhaoYubo,1,2021M5_cd,0101000000AC6F6072A3FF5940BF0D315EF3A63E40
c47f238c67fb472477357bd29de109f3,桂湖森林广场2站,30.825,104.152479,2,POINT(104.152479 30.825000),510112,20210521,ZhaoYubo,1,2021M5_cd,0101000000EA944737C2095A403333333333D33E40
c97245daea5e8c6a2ca470bb117c12fe,黄石,30.724266,103.811777,1,POINT(103.811777 30.724266),510112,20210521,ZhaoYubo,1,2021M5_cd,010100000048A98427F4F35940D09A1F7F69B93E40
ca7aed1da01c64b4d4895ffb7ba73f07,簇桥,30.610311,103.987664,1,POINT(103.987664 30.610311),510112,20210521,ZhaoYubo,1,2021M5_cd,0101000000F0DB10E335FF5940996379573D9C3E40
cb61b9c0fc43ce70fd9e8b58f5977532,工业大道东段1站,30.804523,104.161217,1,POINT(104.161217 30.804523),510112,20210521,ZhaoYubo,1,2021M5_cd,0101000000CAA31B61510A5A403BE12538F5CD3E40
cf2d69cf7d4be05461a697cc85f2397d,新都花园站,30.814765,104.165017,3,POINT(104.165017 30.814765),510112,20210521,ZhaoYubo,1,2021M5_cd,01010000002E9276A38F0A5A40EAEC647094D03E40
d055cc65ec3c98e14ca662501ba056ce,九道堰,30.773937,104.080361,1,POINT(104.080361 30.773937),510112,20210521,ZhaoYubo,1,2021M5_cd,0101000000EDB776A224055A40132A38BC20C63E40
d320f616429b3a0593a39e34b5a2dae2,翠蝶湾站,30.809869,104.163945,1,POINT(104.163945 30.809869),510112,20210521,ZhaoYubo,1,2021M5_cd,0101000000EF552B137E0A5A40520B259353CF3E40
d37dd1b67ff56ed6cd4da639fbbe5756,新鸿路,30.664467,104.099824,1,POINT(104.099824 30.664467),510112,20210521,ZhaoYubo,1,2021M5_cd,0101000000C7D6338463065A406F4562821AAA3E40
d3a3603c1654a6d644023005d66e6698,成都医学院站,30.824498,104.194064,3,POINT(104.194064 30.824498),510112,20210521,ZhaoYubo,1,2021M5_cd,01010000002E55698B6B0C5A400E9E094D12D33E40
d5d0316b7e38f54cc7a1df8cf21bf15f,水沐天城站,30.807081,104.18832,3,POINT(104.188320 30.807081),510112,20210521,ZhaoYubo,1,2021M5_cd,0101000000B24B546F0D0C5A40153944DC9CCE3E40
d802ecf9e67df89e84d4af001f1b3d3a,十里店,30.681951,104.141683,1,POINT(104.141683 30.681951),510112,20210521,ZhaoYubo,1,2021M5_cd,01010000008CD9925511095A4079793A5794AE3E40
e09120446fd25887cc2547f675f3cdf4,成渝立交,30.627274,104.144929,1,POINT(104.144929 30.627274),510112,20210521,ZhaoYubo,1,2021M5_cd,01010000007DCF488446095A4090A1630795A03E40
e475c4a896aa2b515b4cb5d659521724,区人民法院站,30.81488,104.174134,1,POINT(104.174134 30.814880),510112,20210521,ZhaoYubo,1,2021M5_cd,0101000000C9C7EE02250B5A401B2AC6F99BD03E40
e5343e1186dc1d695e95cf85702e5525,迎晖路,30.640723,104.137133,1,POINT(104.137133 30.640723),510112,20210521,ZhaoYubo,1,2021M5_cd,0101000000F48C7DC9C6085A4086CB2A6C06A43E40
e615270b4baa94a36cf4c4694be475dc,四川音乐学院南门站,30.806542,104.176123,2,POINT(104.176123 30.806542),510112,20210521,ZhaoYubo,1,2021M5_cd,0101000000B3446799450B5A40B6D9588979CE3E40
e6acaae6f31f35acf3ef04ed48968bff,麓湖,30.45701,104.070786,1,POINT(104.070786 30.457010),510112,20210521,ZhaoYubo,1,2021M5_cd,0101000000F0C000C287045A40E9F17B9BFE743E40
e82d104e46ecb8166c54143f96f15538,幸福梅林,30.595111,104.135982,1,POINT(104.135982 30.595111),510112,20210521,ZhaoYubo,1,2021M5_cd,01010000000FB6D8EDB3085A40677DCA3159983E40
e8a63fa759a02644e23ab121798c85ba,廖家湾,30.810685,104.088415,1,POINT(104.088415 30.810685),510112,20210521,ZhaoYubo,1,2021M5_cd,0101000000745E6397A8055A40965B5A0D89CF3E40
e9a84b735e6afc8cc1581aaefe241f6a,十里店公交站,30.67657,104.132647,5,POINT(104.132647 30.676570),510112,20210521,ZhaoYubo,1,2021M5_cd,010100000067BAD7497D085A40697407B133AD3E40
eb167db0115f8e9d6d535c0e30528ad4,簇锦,30.613767,104.005919,1,POINT(104.005919 30.613767),510112,20210521,ZhaoYubo,1,2021M5_cd,010100000034DB15FA60005A40315D88D51F9D3E40
ec8af78bfa9027c327876c2c904330d5,警官学院,30.514834,104.037261,2,POINT(104.037261 30.514834),510112,20210521,ZhaoYubo,1,2021M5_cd,0101000000A41AF67B62025A406EDE3829CC833E40
ef22691c8a0545f29a6793e3c5f70aa9,二环牛市口站,30.640158,104.104178,2,POINT(104.104178 30.640158),510112,20210521,ZhaoYubo,1,2021M5_cd,01010000009DBD33DAAA065A40D4450A65E1A33E40
f0193b26461dd26afb98ee58a591d549,前锋路,30.680793,104.089947,1,POINT(104.089947 30.680793),510112,20210521,ZhaoYubo,1,2021M5_cd,0101000000E4D70FB1C1055A408258367348AE3E40
f2c49c8edb6d0369cbdc37918acfd886,杭州路,30.441363,104.086801,1,POINT(104.086801 30.441363),510112,20210521,ZhaoYubo,1,2021M5_cd,0101000000A510C8258E055A4019AA622AFD703E40
f2e50d1cb694bc33a6c51adc38578ceb,花牌坊,30.685926,104.045379,1,POINT(104.045379 30.685926),510112,20210521,ZhaoYubo,1,2021M5_cd,0101000000363B527DE7025A40E179A9D898AF3E40
f332f5c218815a9fc193fa6de3728c68,九兴大道,30.623802,104.036398,1,POINT(104.036398 30.623802),510112,20210521,ZhaoYubo,1,2021M5_cd,0101000000F3E8465854025A40ED2DE57CB19F3E40
f66656f2c5cf8891c8d86a92c9778e55,省体育馆,30.635824,104.064101,1,POINT(104.064101 30.635824),510112,20210521,ZhaoYubo,1,2021M5_cd,010100000004A9143B1A045A400C03965CC5A23E40
f94d0cfb0f27ff214f36ad2daf8c2762,金花,30.59428,103.967873,1,POINT(103.967873 30.594280),510112,20210521,ZhaoYubo,1,2021M5_cd,01010000009C6B98A1F1FD5940B9AAECBB22983E40
f94e657e2a610fa3d876a1558b1b17f3,双流机场1航站楼,30.581278,103.957099,1,POINT(103.957099 30.581278),510112,20210521,ZhaoYubo,1,2021M5_cd,010100000032022A1C41FD594061E28FA2CE943E40
019936d6973e259191089408e9324ae5,洪河东,30.615033,104.164995,1,POINT(104.164995 30.615033),510112,20210521,ZhaoYubo,1,2021M5_cd,01010000003A4030478F0A5A40F5F57CCD729D3E40
028cd44eb47adc81db55b58d2f025f6d,九江北,30.637336,103.91929,1,POINT(103.919290 30.637336),510112,20210521,ZhaoYubo,1,2021M5_cd,01010000008D62B9A5D5FA59403F90BC7328A33E40
03abba809110cb9396da1a1166d39de2,机投桥,30.647566,103.976043,1,POINT(103.976043 30.647566),510112,20210521,ZhaoYubo,1,2021M5_cd,0101000000581F0F7D77FE59406500A8E2C6A53E40
061af1e19c0c334b636eb2bd0e89ede4,机车厂,30.690465,104.131827,1,POINT(104.131827 30.690465),510112,20210521,ZhaoYubo,1,2021M5_cd,0101000000B56E83DA6F085A405B087250C2B03E40
0a021dcf2bd03168a32d7bf8eafbfa05,双店路,30.660004,104.134436,1,POINT(104.134436 30.660004),510112,20210521,ZhaoYubo,1,2021M5_cd,0101000000ECD973999A085A40AC3AAB05F6A83E40
0c58722af03aebe1b96d2abfffc04f3e,天府机场北,30.33695,104.45243,1,POINT(104.452430 30.336950),510112,20210521,ZhaoYubo,1,2021M5_cd,0101000000AD6EF59CF41C5A402063EE5A42563E40
0db844e357409e24fd55c97b8ad1fb99,三官堂,30.630926,104.092013,2,POINT(104.092013 30.630926),510112,20210521,ZhaoYubo,1,2021M5_cd,0101000000A3737E8AE3055A403332C85D84A13E40
0f0e0fe7506ed9a589939cf2c9af1fd1,大观,30.624034,104.130534,1,POINT(104.130534 30.624034),510112,20210521,ZhaoYubo,1,2021M5_cd,0101000000074147AB5A085A40929735B1C09F3E40
13bb1130b69ab8467ecf72531842b314,区人大站,30.82006,104.157666,3,POINT(104.157666 30.820060),510112,20210521,ZhaoYubo,1,2021M5_cd,01010000003C6C2233170A5A40FDC1C073EFD13E40
14d95983068396806ea6a97ff3890956,蔡桥,30.672203,103.942968,1,POINT(103.942968 30.672203),510112,20210521,ZhaoYubo,1,2021M5_cd,01010000002B4B749659FC5940E945ED7E15AC3E40
1570400fc82d3b71d90aa0433a13f3ae,培风,30.663818,103.975041,1,POINT(103.975041 30.663818),510112,20210521,ZhaoYubo,1,2021M5_cd,010100000096D05D1267FE5940027FF8F9EFA93E40
1776e500a605dc365d3917c0e9510410,航天路,30.691146,104.164482,1,POINT(104.164482 30.691146),510112,20210521,ZhaoYubo,1,2021M5_cd,0101000000F7B182DF860A5A40DFC2BAF1EEB03E40
17a91d83041f799bbfcffd7de3d22bad,赖家店,30.736415,104.086228,1,POINT(104.086228 30.736415),510112,20210521,ZhaoYubo,1,2021M5_cd,0101000000F8FF71C284055A40AA4885B185BC3E40
1b97cd62b8e62d594f7e652df166f700,剑南大道锦城大道口,30.576799,104.043638,1,POINT(104.043638 30.576799),510112,20210521,ZhaoYubo,1,2021M5_cd,010100000039B709F7CA025A40925D6919A9933E40
1cfe0a5b82b61247ff542882baf5a186,黄忠,30.691322,104.006371,1,POINT(104.006371 30.691322),510112,20210521,ZhaoYubo,1,2021M5_cd,01010000002429E96168005A405C01857AFAB03E40
1dd6ea324da6969fb6e8a7154feb279f,地铁团结新区站,30.806826,104.156318,4,POINT(104.156318 30.806826),510112,20210521,ZhaoYubo,1,2021M5_cd,0101000000AC71361D010A5A40009013268CCE3E40
1e42dccf4ab671dcc4d7f04fbf16913d,中和二街和美路口站,30.549601,104.08825,3,POINT(104.088250 30.549601),510112,20210521,ZhaoYubo,1,2021M5_cd,0101000000CFF753E3A5055A4051D9B0A6B28C3E40
208f23afc165a47cc45b8cc9a35c3583,百龙门站,30.820368,104.155656,3,POINT(104.155656 30.820368),510112,20210521,ZhaoYubo,1,2021M5_cd,0101000000465B9544F6095A4057AF22A303D23E40
21d0c1fc24cbb0fe50d16f96c392af31,地铁韦家碾站(E口),30.722255,104.086691,1,POINT(104.086691 30.722255),510112,20210521,ZhaoYubo,1,2021M5_cd,0101000000E27668588C055A405B5F24B4E5B83E40
22c61ff466989459792e3dddaddcc1fd,威灵,30.691734,104.177045,1,POINT(104.177045 30.691734),510112,20210521,ZhaoYubo,1,2021M5_cd,0101000000E73A8DB4540B5A400188BB7A15B13E40
22f15927bcccdf2e527ac6063f14a960,钟楼,30.823369,104.172851,1,POINT(104.172851 30.823369),510112,20210521,ZhaoYubo,1,2021M5_cd,01010000002D05A4FD0F0B5A404C8A8F4FC8D23E40
25e3fe6e33f3c735f13143f0e9cff497,望江楼公园,30.635556,104.089485,1,POINT(104.089485 30.635556),510112,20210521,ZhaoYubo,1,2021M5_cd,0101000000E21E4B1FBA055A40CEC64ACCB3A23E40
26e08f22627104427eb74347a699fe22,新城市广场站,30.811908,104.176894,3,POINT(104.176894 30.811908),510112,20210521,ZhaoYubo,1,2021M5_cd,0101000000F436363B520B5A405B5CE333D9CF3E40
273ffaa361f3bcaa0936f42f6adf7fee,娇子立交,30.602043,104.125569,1,POINT(104.125569 30.602043),510112,20210521,ZhaoYubo,1,2021M5_cd,01010000000D198F5209085A4025C9737D1F9A3E40
2e9cab4e33b0b4a87250286ad356acaa,西河,30.649842,104.217914,1,POINT(104.217914 30.649842),510112,20210521,ZhaoYubo,1,2021M5_cd,0101000000CBD58F4DF20D5A403691990B5CA63E40
32ca719a989c321923be35f8c623de74,龙潭立交,30.698723,104.158284,1,POINT(104.158284 30.698723),510112,20210521,ZhaoYubo,1,2021M5_cd,0101000000B9DE3653210A5A4088F6B182DFB23E40
34eae11c4b2e459b55c6026141a3b0d3,民乐,30.542854,104.04407,1,POINT(104.044070 30.542854),510112,20210521,ZhaoYubo,1,2021M5_cd,0101000000062FFA0AD2025A40B680D07AF88A3E40
35a1fd76fff8ddde3cff2167affba421,成都东客站,30.631768,104.137435,1,POINT(104.137435 30.631768),510112,20210521,ZhaoYubo,1,2021M5_cd,0101000000D9942BBCCB085A40CAA8328CBBA13E40
35b3c117814d284e2b08ce1f4774d978,新中路站,30.827148,104.158861,2,POINT(104.158861 30.827148),510112,20210521,ZhaoYubo,1,2021M5_cd,010100000008E753C72A0A5A40AAF3A8F8BFD33E40
361307d9dbd967c185bed5cd9677f2e7,白佛桥,30.643693,103.961137,1,POINT(103.961137 30.643693),510112,20210521,ZhaoYubo,1,2021M5_cd,01010000006F7EC34483FD594004AA7F10C9A43E40
400e7ff858efd12972a9cea32b0e081d,锦水河,30.799832,104.150808,1,POINT(104.150808 30.799832),510112,20210521,ZhaoYubo,1,2021M5_cd,010100000069FE98D6A6095A40554B3ACAC1CC3E40
45bab5367acc410e8bf7a7c16badff5e,金石路,30.592715,104.086643,1,POINT(104.086643 30.592715),510112,20210521,ZhaoYubo,1,2021M5_cd,010100000059DB148F8B055A4040D9942BBC973E40
465295267977cc70886975289db14689,白果林,30.676338,104.030861,1,POINT(104.030861 30.676338),510112,20210521,ZhaoYubo,1,2021M5_cd,0101000000336E6AA0F9015A40C40AB77C24AD3E40
472fe1337aca91e27266aad78312ee3d,翰香府站,30.808669,104.16834,3,POINT(104.168340 30.808669),510112,20210521,ZhaoYubo,1,2021M5_cd,0101000000F4A62215C60A5A40FD497CEE04CF3E40
48ddbcb474a48bb01a1160e2d17cceb5,映月花园站,30.613225,103.964,1,POINT(103.964000 30.613225),510112,20210521,ZhaoYubo,1,2021M5_cd,010100000004560E2DB2FD5940F0164850FC9C3E40
48e4664385ad644b01124e26b1103790,兴乐南路站,30.803878,104.187282,1,POINT(104.187282 30.803878),510112,20210521,ZhaoYubo,1,2021M5_cd,01010000004948A46DFC0B5A4051F9D7F2CACD3E40
4b26c5b742a4f6646edb375d7d16c3dc,桂水路2站,30.816101,104.169258,2,POINT(104.169258 30.816101),510112,20210521,ZhaoYubo,1,2021M5_cd,010100000087A5811FD50A5A409F3BC1FEEBD03E40
4c094f6b08e09d0c2546af544ac70a5b,地铁双凤桥站(A口),30.617602,103.966855,1,POINT(103.966855 30.617602),510112,20210521,ZhaoYubo,1,2021M5_cd,0101000000573ECBF3E0FD5940B7F1272A1B9E3E40
4ed2c93b6b3e21ab10b674953ff5c906,慈义,30.820668,104.111622,1,POINT(104.111622 30.820668),510112,20210521,ZhaoYubo,1,2021M5_cd,0101000000E7E099D024075A40ADDF4C4C17D23E40
4ef94b5a1c26a9377a86ad53a7372ae2,天府五街,30.539572,104.067006,1,POINT(104.067006 30.539572),510112,20210521,ZhaoYubo,1,2021M5_cd,0101000000B1A888D349045A405AD6FD63218A3E40
521ff9b793cf0d2f6888b36ad5812b7e,锦城大道,30.577209,104.047867,1,POINT(104.047867 30.577209),510112,20210521,ZhaoYubo,1,2021M5_cd,0101000000B0E3BF4010035A40F5F411F8C3933E40
529eff690edc0c10921051bd847139ef,地铁植物园站,30.766219,104.11864,1,POINT(104.118640 30.766219),510112,20210521,ZhaoYubo,1,2021M5_cd,0101000000D6FF39CC97075A40E692AAED26C43E40
55d14fea4a08278f2db9cb80a0bc35f5,惠王陵,30.614806,104.149589,1,POINT(104.149589 30.614806),510112,20210521,ZhaoYubo,1,2021M5_cd,0101000000D9B5BDDD92095A4074620FED639D3E40
5620046bdca10f4d31dbbcbfe2843559,迎春桥,30.583426,103.932819,1,POINT(103.932819 30.583426),510112,20210521,ZhaoYubo,1,2021M5_cd,01010000009885764EB3FB5940D7A205685B953E40
5653f2bacf0428b605fa00db00778d24,龙平路,30.575536,104.256614,1,POINT(104.256614 30.575536),510112,20210521,ZhaoYubo,1,2021M5_cd,0101000000876C205D6C105A40B0ABC95356933E40
573df9734390606bb1faf41cf8ae4ae0,白仁店,30.743703,104.089218,1,POINT(104.089218 30.743703),510112,20210521,ZhaoYubo,1,2021M5_cd,0101000000BB0D6ABFB5055A40E5EFDE5163BE3E40
58674b50965007a5a95ed5a28eb61658,理工大学,30.676193,104.134027,1,POINT(104.134027 30.676193),510112,20210521,ZhaoYubo,1,2021M5_cd,0101000000FC71FBE593085A40BDC804FC1AAD3E40
5b9e8a71d4a03333bfa5c8bddb3bd09e,双流机场2航站楼,30.572635,103.954674,1,POINT(103.954674 30.572635),510112,20210521,ZhaoYubo,1,2021M5_cd,0101000000DB15FA6019FD5940828B153598923E40
5c6b0cf9dfff78f81e0c74b6e73f4692,富城锦苑站,30.819151,104.160069,2,POINT(104.160069 30.819151),510112,20210521,ZhaoYubo,1,2021M5_cd,01010000009E060C923E0A5A40577C43E1B3D13E40
5fdb142b571c59f5547bb789c5370a39,锦门站,30.782218,104.129167,2,POINT(104.129167 30.782218),510112,20210521,ZhaoYubo,1,2021M5_cd,01010000003C2EAA4544085A40B05758703FC83E40
6004130ab9802b092ead0922fc1f4356,五块石,30.709782,104.062051,2,POINT(104.062051 30.709782),510112,20210521,ZhaoYubo,1,2021M5_cd,0101000000C8EBC1A4F8035A401B4AED45B4B53E40
603661c0106bb8a393429690e7648d77,温家山,30.500493,104.007036,1,POINT(104.007036 30.500493),510112,20210521,ZhaoYubo,1,2021M5_cd,010100000042791F4773005A407EE02A4F20803E40
62043bf193ace92ad445fec2bcf1bd7a,熊猫基地,30.734327,104.14183,1,POINT(104.141830 30.734327),510112,20210521,ZhaoYubo,1,2021M5_cd,0101000000DEE522BE13095A40DE91B1DAFCBB3E40
624840cf1eceea6aa3a893811312d2a7,黄田坝,30.700604,103.969292,1,POINT(103.969292 30.700604),510112,20210521,ZhaoYubo,1,2021M5_cd,0101000000901150E108FE59406072A3C85AB33E40
65c52ac682001cfd26c7a76cf177752d,妇幼保健院站,30.820787,104.186796,4,POINT(104.186796 30.820787),510112,20210521,ZhaoYubo,1,2021M5_cd,010100000083C13577F40B5A4061FBC9181FD23E40
65fd3108180db80b7faa4fd7edb1ed0e,静安路口站,30.816282,104.177383,3,POINT(104.177383 30.816282),510112,20210521,ZhaoYubo,1,2021M5_cd,010100000073F7393E5A0B5A4040506EDBF7D03E40
66cfb5eb2114f67e1d314e137cf1f8c7,锦门,30.782218,104.129167,1,POINT(104.129167 30.782218),510112,20210521,ZhaoYubo,1,2021M5_cd,01010000003C2EAA4544085A40B05758703FC83E40
66e8c230db8e8bd08c2333ad03b1dca5,兴隆,30.411948,104.100121,1,POINT(104.100121 30.411948),510112,20210521,ZhaoYubo,1,2021M5_cd,01010000002429E96168065A4011A7936C75693E40
674448e04ba46636f7260e2d71d4d3f5,兰家沟,30.445961,103.994336,1,POINT(103.994336 30.445961),510112,20210521,ZhaoYubo,1,2021M5_cd,0101000000124F7633A3FF59409D4A06802A723E40
681cde65faa632a03f728ce413d4b038,回龙,30.446816,104.009977,1,POINT(104.009977 30.446816),510112,20210521,ZhaoYubo,1,2021M5_cd,0101000000952D9276A3005A405C548B8862723E40
6c4002dc15eba9d61274062d97edd7ab,锦江宾馆,30.652473,104.06355,2,POINT(104.063550 30.652473),510112,20210521,ZhaoYubo,1,2021M5_cd,01010000004BEA043411045A40E485747808A73E40
707a855da1c92185af79f8ab632a73b6,东大路,30.635895,104.109989,1,POINT(104.109989 30.635895),510112,20210521,ZhaoYubo,1,2021M5_cd,0101000000DD7A4D0F0A075A409FB0C403CAA23E40
7214ff847a8b5f7e3db9dd88253007c3,皇花园,30.75472,104.057227,1,POINT(104.057227 30.754720),510112,20210521,ZhaoYubo,1,2021M5_cd,0101000000AF5C6F9BA9035A401AA3755435C13E40
754f8992c51b0b0f51355f1be0c98c7c,西大街,30.675529,104.055646,2,POINT(104.055646 30.675529),510112,20210521,ZhaoYubo,1,2021M5_cd,0101000000CE893DB48F035A40E57FF277EFAC3E40
78b856ac3d1c073c8d4e03386edd6cad,顺江路,30.637987,104.090468,1,POINT(104.090468 30.637987),510112,20210521,ZhaoYubo,1,2021M5_cd,010100000069554B3ACA055A40ED45B41D53A33E40
79d87eeb6729ae3fe0007173b4ad759e,市一医院,30.591313,104.048117,1,POINT(104.048117 30.591313),510112,20210521,ZhaoYubo,1,2021M5_cd,01010000006D58535914035A401CB3EC4960973E40
7bbe6dd954c156f2aaf5a73491a6af48,抚琴,30.679777,104.039661,1,POINT(104.039661 30.679777),510112,20210521,ZhaoYubo,1,2021M5_cd,01010000004E7B4ACE89025A40B0928FDD05AE3E40
809a9f5f3c16ec9634e54781282ba604,华桂路,30.827439,104.095765,1,POINT(104.095765 30.827439),510112,20210521,ZhaoYubo,1,2021M5_cd,01010000007EC6850321065A40586FD40AD3D33E40
84258973170bb963c482d126a9595e9e,应天寺,30.538539,103.902611,1,POINT(103.902611 30.538539),510112,20210521,ZhaoYubo,1,2021M5_cd,0101000000A180ED60C4F95940DC9E20B1DD893E40
84e04bd734e342c801a84a93c7ab3305,九里堤,30.697062,104.054634,1,POINT(104.054634 30.697062),510112,20210521,ZhaoYubo,1,2021M5_cd,0101000000FACF9A1F7F035A40CB48BDA772B23E40
8523b30d1dee6ba2d9de67acecb100ef,西华大道,30.720897,104.02907,1,POINT(104.029070 30.720897),510112,20210521,ZhaoYubo,1,2021M5_cd,0101000000DDD26A48DC015A40D6C8AEB48CB83E40
86c50f132935f92a79ab50ac752dee9a,二仙桥北路口站,30.682416,104.125123,3,POINT(104.125123 30.682416),510112,20210521,ZhaoYubo,1,2021M5_cd,01010000008E3EE60302085A406344A2D0B2AE3E40
87c331694ad98fdeab1a22c17a0f69d5,福田,30.280942,104.384587,1,POINT(104.384587 30.280942),510112,20210521,ZhaoYubo,1,2021M5_cd,0101000000DFDDCA129D185A40A5129ED0EB473E40
8a87fb300113adbede6da0ac1abc8883,成都医学院,30.819357,104.192254,1,POINT(104.192254 30.819357),510112,20210521,ZhaoYubo,1,2021M5_cd,01010000009DA1B8E34D0C5A40A9BF5E61C1D13E40
8ad280504f4a8ac36f6e18f3cec81915,刘家碾,30.417912,103.789146,1,POINT(103.789146 30.417912),510112,20210521,ZhaoYubo,1,2021M5_cd,01010000003B71395E81F25940209BE447FC6A3E40
8b3e7ca22a3e1a42911b76850ea28acb,航天立交,30.614217,104.138393,1,POINT(104.138393 30.614217),510112,20210521,ZhaoYubo,1,2021M5_cd,0101000000B33F506EDB085A40B1A547533D9D3E40
8ba1695d0d788c85ff33431ccd8db58a,太平寺,30.593912,104.009807,1,POINT(104.009807 30.593912),510112,20210521,ZhaoYubo,1,2021M5_cd,010100000066118AADA0005A40B3B3E89D0A983E40
8bc4b94545515379720d2504bd61fe87,地铁三岔站,30.313094,104.315494,4,POINT(104.315494 30.313094),510112,20210521,ZhaoYubo,1,2021M5_cd,01010000006405BF0D31145A40E692AAED26503E40
917b39626d2c4c18453717b73bc33bb0,犀浦,30.760643,103.968552,1,POINT(103.968552 30.760643),510112,20210521,ZhaoYubo,1,2021M5_cd,01010000006D1E87C1FCFD59406CEEE87FB9C23E40
949ac2c6059747b47782f52a1df8afc7,西北桥,30.688057,104.055666,1,POINT(104.055666 30.688057),510112,20210521,ZhaoYubo,1,2021M5_cd,0101000000F25F200890035A40ACC8E88024B03E40
94e455a08e2eb439e35d811aa22e5ac0,石犀公园,30.762664,104.057273,1,POINT(104.057273 30.762664),510112,20210521,ZhaoYubo,1,2021M5_cd,0101000000677C5F5CAA035A4028D6A9F23DC33E40
98e9378dc75a6782c51a457eeecc349e,叠香庄园站,30.807701,104.1719,2,POINT(104.171900 30.807701),510112,20210521,ZhaoYubo,1,2021M5_cd,0101000000AC8BDB68000B5A404EF2237EC5CE3E40
9a1e02601c39533c80040d8b946cf810,蜀龙路中站,30.719274,104.145386,3,POINT(104.145386 30.719274),510112,20210521,ZhaoYubo,1,2021M5_cd,0101000000F6D214014E095A40F4DC425722B83E40
9bc904b2df8ad896a9904e058c533ac4,东骏湖景湾南门站,30.804362,104.184018,2,POINT(104.184018 30.804362),510112,20210521,ZhaoYubo,1,2021M5_cd,010100000005F86EF3C60B5A40292504ABEACD3E40
9e136a78e1e30d29dc2a38c10b2d951c,海伦国际站,30.816394,104.158193,1,POINT(104.158193 30.816394),510112,20210521,ZhaoYubo,1,2021M5_cd,0101000000315D88D51F0A5A408FA67A32FFD03E40
9f74edfab4560b35a7db875b65c903bd,龙爪堰,30.654262,104.006132,1,POINT(104.006132 30.654262),510112,20210521,ZhaoYubo,1,2021M5_cd,010100000061DD787764005A40FB03E5B67DA73E40
a1bcd9fd6727b7f8dcbbd51a91acefb8,石羊场公交站,30.589108,104.031076,12,POINT(104.031076 30.589108),510112,20210521,ZhaoYubo,1,2021M5_cd,010100000031EC3026FD015A40DDCF29C8CF963E40
a570b31a50e4bb06e6dca319cf23cb77,通宝街西站,30.637728,104.104013,2,POINT(104.104013 30.637728),510112,20210521,ZhaoYubo,1,2021M5_cd,0101000000F7562426A8065A4055BE672442A33E40
a7c31b06d9e0ace92f7bee667f80c64a,新津站,30.465777,103.87116,1,POINT(103.871160 30.465777),510112,20210521,ZhaoYubo,1,2021M5_cd,01010000005665DF15C1F759409F3A56293D773E40
aab605c046b1e06ca8941ac45641d318,天府机场3号4号航站楼,30.271475,104.420421,1,POINT(104.420421 30.271475),510112,20210521,ZhaoYubo,1,2021M5_cd,01010000004E637B2DE81A5A407DAEB6627F453E40
ab042489a84b1f7154274f404bed0022,海昌路,30.495073,104.068702,1,POINT(104.068702 30.495073),510112,20210521,ZhaoYubo,1,2021M5_cd,0101000000DECA129D65045A40F321A81ABD7E3E40
ae9806383b6bf6852a694082cad54a7a,梓潼宫,30.750494,103.991043,2,POINT(103.991043 30.750494),510112,20210521,ZhaoYubo,1,2021M5_cd,0101000000817B9E3F6DFF59401FD8F15F20C03E40
aedd6114a7e8c0e8d82700d5bce1e6b0,太平园,30.627921,104.019205,1,POINT(104.019205 30.627921),510112,20210521,ZhaoYubo,1,2021M5_cd,0101000000DCBA9BA73A015A40BC783F6EBFA03E40
b3ef0679b1ac365803d5c62232e7c8da,殷家林,30.60844,104.031933,1,POINT(104.031933 30.608440),510112,20210521,ZhaoYubo,1,2021M5_cd,010100000071AAB5300B025A4008944DB9C29B3E40
b45555eaa9df0179e9c62c578ae25c8b,檬梓,30.787298,103.912336,1,POINT(103.912336 30.787298),510112,20210521,ZhaoYubo,1,2021M5_cd,0101000000A9BD88B663FA5940CA349A5C8CC93E40
b63e15a10abfe3836af61539f08a2bb1,牛王庙,30.647222,104.091099,2,POINT(104.091099 30.647222),510112,20210521,ZhaoYubo,1,2021M5_cd,0101000000B16CE690D4055A4070404B57B0A53E40
b75cb236cf92085a161f1b7dac6d7acd,府青路,30.696853,104.104683,1,POINT(104.104683 30.696853),510112,20210521,ZhaoYubo,1,2021M5_cd,01010000009E5C5320B3065A40971E4DF564B23E40
b7e3f3a2df8e030eb9e5b85ab95d80cc,人民北路,30.687235,104.070539,1,POINT(104.070539 30.687235),510112,20210521,ZhaoYubo,1,2021M5_cd,0101000000EC8502B683045A40A4AA09A2EEAF3E40
b8ce6659229e31dead238c0a8674cd1d,益州大道,30.591064,104.057836,1,POINT(104.057836 30.591064),510112,20210521,ZhaoYubo,1,2021M5_cd,01010000000322C495B3035A40CBD765F84F973E40
b9050b5d8e40c03d1a08259612388deb,华府大道,30.528214,104.067332,1,POINT(104.067332 30.528214),510112,20210521,ZhaoYubo,1,2021M5_cd,01010000005A7EE02A4F045A40124A5F0839873E40
ba91bc6b9092c0c3d6646a9b8132baa6,电子路站,30.818795,104.148176,1,POINT(104.148176 30.818795),510112,20210521,ZhaoYubo,1,2021M5_cd,0101000000568330B77B095A40DA20938C9CD13E40
baa49b09e5989fe43d1973aafcef50f6,赵家山,30.597919,104.100845,1,POINT(104.100845 30.597919),510112,20210521,ZhaoYubo,1,2021M5_cd,0101000000C53D963E74065A4033A8363811993E40
bc054ac53bed008e8e64b2f73849f8da,天府新站,30.392782,104.148529,1,POINT(104.148529 30.392782),510112,20210521,ZhaoYubo,1,2021M5_cd,01010000007C60C77F81095A401D75745C8D643E40
bd0d113edb30beab78552ca6e3bdd403,万寿桥,30.66396,103.990442,1,POINT(103.990442 30.663960),510112,20210521,ZhaoYubo,1,2021M5_cd,01010000006EA5D76663FF594027DA5548F9A93E40
bd91469009a465a12adcca3a7af50baf,熊猫大道,30.727814,104.105457,1,POINT(104.105457 30.727814),510112,20210521,ZhaoYubo,1,2021M5_cd,01010000009888B7CEBF065A402992AF0452BA3E40
bda2f126dafb657cb04ad8ffb0ccf9f1,神仙树,30.612155,104.045145,1,POINT(104.045145 30.612155),510112,20210521,ZhaoYubo,1,2021M5_cd,0101000000FDA4DAA7E3025A403815A930B69C3E40
bff3c89b95665c8d7c9cda9fee51c4df,新通大道,30.524375,104.095909,1,POINT(104.095909 30.524375),510112,20210521,ZhaoYubo,1,2021M5_cd,01010000001899805F23065A400AD7A3703D863E40
c0d525113a041f04e90553a1e007595e,石羊立交,30.59766,104.048377,1,POINT(104.048377 30.597660),510112,20210521,ZhaoYubo,1,2021M5_cd,01010000003B38D89B18035A409B20EA3E00993E40
c46ba9f924be1b0d9d9a5472849932ee,兴盛,30.733279,104.01911,1,POINT(104.019110 30.733279),510112,20210521,ZhaoYubo,1,2021M5_cd,0101000000B341261939015A40F5D72B2CB8BB3E40
c4a2d2e051d2eab592038bb9bcd55164,二环建设南路口,30.667644,104.110374,1,POINT(104.110374 30.667644),510112,20210521,ZhaoYubo,1,2021M5_cd,010100000009151C5E10075A40E15E99B7EAAA3E40
c5602a3d7069b6b9feee766b841e9a2f,中坝,30.676176,103.961938,1,POINT(103.961938 30.676176),510112,20210521,ZhaoYubo,1,2021M5_cd,0101000000E6B1666490FD59401157CEDE19AD3E40
c6d7c1b0f96df0722e6d5ab2b013775a,钟楼站,30.826116,104.167052,1,POINT(104.167052 30.826116),510112,20210521,ZhaoYubo,1,2021M5_cd,0101000000CF2EDFFAB00A5A40CCB392567CD33E40
c77f96654f28f427e06972c7dfaf04ef,武侯大道,30.639571,104.010583,1,POINT(104.010583 30.639571),510112,20210521,ZhaoYubo,1,2021M5_cd,010100000030B95164AD005A405378D0ECBAA33E40
cca7857155427e98eb897be2e9f831a0,合江,30.38644,104.165288,1,POINT(104.165288 30.386440),510112,20210521,ZhaoYubo,1,2021M5_cd,0101000000F69A1E14940A5A40C2DD59BBED623E40
cd8835e375712e0763c27e281c35be57,建设北路,30.673786,104.096243,1,POINT(104.096243 30.673786),510112,20210521,ZhaoYubo,1,2021M5_cd,0101000000035E66D828065A40AE80423D7DAC3E40
ce3867507efe358e0f773972876cab40,蒲草塘,30.504088,104.095916,1,POINT(104.095916 30.504088),510112,20210521,ZhaoYubo,1,2021M5_cd,010100000071CADC7C23065A40594E42E90B813E40
ce700e075cea072faab1586c917f7faa,中和二街口站,30.550165,104.093733,2,POINT(104.093733 30.550165),510112,20210521,ZhaoYubo,1,2021M5_cd,01010000009563B2B8FF055A4062670A9DD78C3E40
d14313ec7a85dbb8af09009cbacaca49,金沙博物馆,30.67998,104.010175,1,POINT(104.010175 30.679980),510112,20210521,ZhaoYubo,1,2021M5_cd,0101000000280F0BB5A6005A4020EF552B13AE3E40
d1cd4fb0d6ec0af6bddd490216c2bd56,马超西路,30.815537,104.162233,1,POINT(104.162233 30.815537),510112,20210521,ZhaoYubo,1,2021M5_cd,01010000003F558506620A5A408EAD6708C7D03E40
d457b50cf7ab1c2b000fda46d25d9c11,地铁市二医院站C口,30.662155,104.083626,1,POINT(104.083626 30.662155),510112,20210521,ZhaoYubo,1,2021M5_cd,010100000019C6DD205A055A4004E275FD82A93E40
d604bedd59084593f410c4d3fa289c10,文化宫,30.674378,104.007091,1,POINT(104.007091 30.674378),510112,20210521,ZhaoYubo,1,2021M5_cd,01010000002446CF2D74005A4053245F09A4AC3E40
d7371a8fd4b7f754e11da1b068938e68,武青南路,30.62512,103.982885,1,POINT(103.982885 30.625120),510112,20210521,ZhaoYubo,1,2021M5_cd,0101000000A7AE7C96E7FE5940551344DD07A03E40
d9b2148b9e655138bf0b1862f4b9e3ce,金融城北,30.591237,104.065447,1,POINT(104.065447 30.591237),510112,20210521,ZhaoYubo,1,2021M5_cd,0101000000C4279D4830045A40662FDB4E5B973E40
dabf5b7b11be73461b7a6ee842496806,桂湖东路站,30.825951,104.165382,1,POINT(104.165382 30.825951),510112,20210521,ZhaoYubo,1,2021M5_cd,01010000003656629E950A5A403719558671D33E40
dbccb85cf06fde2ea1d21aeb8c6256f2,东郊记忆东大门,30.671893,104.123032,2,POINT(104.123032 30.671893),510112,20210521,ZhaoYubo,1,2021M5_cd,010100000022179CC1DF075A404D69FD2D01AC3E40
dd86448362ec34d8abf9c039ef6a9e7e,益州大道中段北站,30.563456,104.054314,3,POINT(104.054314 30.563456),510112,20210521,ZhaoYubo,1,2021M5_cd,0101000000C26D6DE179035A4027BC04A73E903E40
df4621af421aebc6870843e45dbfdb3d,地铁石油大学站,30.820873,104.185252,3,POINT(104.185252 30.820873),510112,20210521,ZhaoYubo,1,2021M5_cd,01010000003161342BDB0B5A405E2BA1BB24D23E40
e1bb016ac03ddd07f9c1f11bc58fe646,沙河源,30.724835,104.047121,1,POINT(104.047121 30.724835),510112,20210521,ZhaoYubo,1,2021M5_cd,01010000001C7DCC0704035A4004FF5BC98EB93E40
e3da4395f06fe8a7cadad0ef33b96409,露天音乐公园,30.725452,104.074574,2,POINT(104.074574 30.725452),510112,20210521,ZhaoYubo,1,2021M5_cd,010100000071C806D2C5045A405BD1E638B7B93E40
e3ef6cf346012224af3d0fcc13b861d8,锦城广场东,30.570871,104.066911,1,POINT(104.066911 30.570871),510112,20210521,ZhaoYubo,1,2021M5_cd,0101000000882F134548045A401D3C139A24923E40
e52a0269f3c778feeb97f05b3cda3a19,锦城湖,30.566257,104.043684,1,POINT(104.043684 30.566257),510112,20210521,ZhaoYubo,1,2021M5_cd,0101000000F1D6F9B7CB025A408E210038F6903E40
e60fa10a2c5d1420ee51ffdf30175852,陆家桥,30.74467,104.056599,1,POINT(104.056599 30.744670),510112,20210521,ZhaoYubo,1,2021M5_cd,0101000000207F69519F035A40F44F70B1A2BE3E40
e6c3a247f2505958de172f25e9ff8428,塔子山公园,30.631884,104.120388,1,POINT(104.120388 30.631884),510112,20210521,ZhaoYubo,1,2021M5_cd,01010000002DB5DE6FB4075A409CDD5A26C3A13E40
e9e1f89594080cbe90dae11a4a662371,东光,30.622017,104.095369,1,POINT(104.095369 30.622017),510112,20210521,ZhaoYubo,1,2021M5_cd,0101000000580394861A065A40588E90813C9F3E40
ead5c614af5c4b77c35b155d9b273e62,锦绣庭院站,30.819227,104.166491,3,POINT(104.166491 30.819227),510112,20210521,ZhaoYubo,1,2021M5_cd,01010000000305DEC9A70A5A400D0055DCB8D13E40
eae41caa5a9f85603de16a78c382f7f8,成都西站,30.686509,103.973763,1,POINT(103.973763 30.686509),510112,20210521,ZhaoYubo,1,2021M5_cd,010100000083C30B2252FE5940E068C70DBFAF3E40
ed18323ea8bd337a64c1937c170d5fc1,郫筒,30.798757,103.89249,1,POINT(103.892490 30.798757),510112,20210521,ZhaoYubo,1,2021M5_cd,01010000007380608E1EF959407973B8567BCC3E40
ed71c7ecc0f830c0022bab89944f0f2e,工业大道蓉都大道口站,30.805447,104.157433,3,POINT(104.157433 30.805447),510112,20210521,ZhaoYubo,1,2021M5_cd,0101000000EA93DC61130A5A404CA94BC631CE3E40
ede9fd132dcd3757b252275938f6b1b2,五根松,30.504503,104.078848,1,POINT(104.078848 30.504503),510112,20210521,ZhaoYubo,1,2021M5_cd,0101000000B8567BD80B055A40E0BBCD1B27813E40
f1b44ad153261e0bc77c562020a19d7e,观东,30.533365,104.095837,1,POINT(104.095837 30.533365),510112,20210521,ZhaoYubo,1,2021M5_cd,0101000000CB2F833122065A40BFD4CF9B8A883E40
f23c3af230f0920f6b8052e9c9d51ed7,天元山庄站,30.81719,104.146496,2,POINT(104.146496 30.817190),510112,20210521,ZhaoYubo,1,2021M5_cd,0101000000AB3FC23060095A40459E245D33D13E40
f6ec090ec98705debccd33ece9ed15e1,天华一路(地铁天府三街站C2口),30.549337,104.067429,1,POINT(104.067429 30.549337),510112,20210521,ZhaoYubo,1,2021M5_cd,01010000005473B9C150045A40967B8159A18C3E40
f9ffa217aa36f7d47d044be55deac583,地铁牛市口站,30.64031,104.10495,1,POINT(104.104950 30.640310),510112,20210521,ZhaoYubo,1,2021M5_cd,0101000000C66D3480B7065A40404D2D5BEBA33E40
fce83d4adf60bbc81c32ac9c98457d2b,成都大学,30.649193,104.178739,1,POINT(104.178739 30.649193),510112,20210521,ZhaoYubo,1,2021M5_cd,010100000043E1B375700B5A40C9CA2F8331A63E40
feff755081ea95ac3240e30137f9ecab,高升桥,30.642524,104.039364,1,POINT(104.039364 30.642524),510112,20210521,ZhaoYubo,1,2021M5_cd,0101000000F22895F084025A4026E5EE737CA43E40
ff73f7bffd00a56d2c9ba4a1054c5fca,金融城东,30.581872,104.082166,1,POINT(104.082166 30.581872),510112,20210521,ZhaoYubo,1,2021M5_cd,0101000000F6B52E3542055A4047753A90F5943E40
ff96e10285db2510f02e2c8e6df3cf9e,城隍庙,30.68124,104.078078,1,POINT(104.078078 30.681240),510112,20210521,ZhaoYubo,1,2021M5_cd,01010000006022DE3AFF045A401FBAA0BE65AE3E40
